{
"type": "FeatureCollection",
"name": "national_pollingplaces_navracompliant",
"crs": { "type": "name", "properties": { "name": "urn:ogc:def:crs:OGC:1.3:CRS84" } },
"features": [
{ "type": "Feature", "properties": { "bwc_id": 2.0, "state": "AK", "county": "1", "polling.name": "Plaza Mall\n", "address": "2417 Tongass Avenue", "city": "Ketchikan", "zip": null, "pp.onres": 1.0 }, "geometry": { "type": "Point", "coordinates": [ -131.674206, 55.34944 ] } },
{ "type": "Feature", "properties": { "bwc_id": 3.0, "state": "AK", "county": "1", "polling.name": "Ketchikan Ferry Terminal\n", "address": "3501 Tongass Avenue", "city": "Ketchikan", "zip": null, "pp.onres": 1.0 }, "geometry": { "type": "Point", "coordinates": [ -131.692617, 55.355322 ] } },
{ "type": "Feature", "properties": { "bwc_id": 4.0, "state": "AK", "county": "1", "polling.name": "North Tongass Fire Station No 6\n", "address": "7550 N Tongass Highway", "city": "Ketchikan", "zip": null, "pp.onres": 1.0 }, "geometry": { "type": "Point", "coordinates": [ -131.790586, 55.431597 ] } },
{ "type": "Feature", "properties": { "bwc_id": 5.0, "state": "AK", "county": "1", "polling.name": "North Tongass Fire Station No 8\n", "address": "13110 N Tongass Highway", "city": "Ketchikan", "zip": null, "pp.onres": 1.0 }, "geometry": { "type": "Point", "coordinates": [ -131.804638, 55.464625 ] } },
{ "type": "Feature", "properties": { "bwc_id": 6.0, "state": "AK", "county": "1", "polling.name": "Saxman Community Hall\n", "address": "2841 S Tongass Hwy", "city": "Saxman", "zip": null, "pp.onres": 1.0 }, "geometry": { "type": "Point", "coordinates": [ -131.584837, 55.31083 ] } },
{ "type": "Feature", "properties": { "bwc_id": 7.0, "state": "AK", "county": "1", "polling.name": "South Tongass Alliance Church\n", "address": "376 Old Homestead Rd", "city": "Ketchikan", "zip": null, "pp.onres": 1.0 }, "geometry": { "type": "Point", "coordinates": [ -131.568845, 55.309875 ] } },
{ "type": "Feature", "properties": { "bwc_id": 9.0, "state": "AK", "county": "1", "polling.name": "Metlakatla Town Hall\n", "address": "317 3rd Ave.", "city": "Metlakatla", "zip": null, "pp.onres": 1.0 }, "geometry": { "type": "Point", "coordinates": [ -131.578577, 55.127631 ] } },
{ "type": "Feature", "properties": { "bwc_id": 10.0, "state": "AK", "county": "1", "polling.name": "James & Elsie Nolan Civic Center\n", "address": "296 Campbell Dr", "city": "Wrangell", "zip": null, "pp.onres": 0.0 }, "geometry": { "type": "Point", "coordinates": [ -132.382023, 56.469767 ] } },
{ "type": "Feature", "properties": { "bwc_id": 12.0, "state": "AK", "county": "2", "polling.name": "Craig City Hall\n", "address": "500 Third St", "city": "Craig", "zip": null, "pp.onres": 1.0 }, "geometry": { "type": "Point", "coordinates": [ -133.151422, 55.476082 ] } },
{ "type": "Feature", "properties": { "bwc_id": 13.0, "state": "AK", "county": "2", "polling.name": "Hoonah City Hall\n", "address": "300 Front St", "city": "Hoonah", "zip": null, "pp.onres": 1.0 }, "geometry": { "type": "Point", "coordinates": [ -135.445105, 58.109163 ] } },
{ "type": "Feature", "properties": { "bwc_id": 17.0, "state": "AK", "county": "2", "polling.name": "Klawock City Hall\n", "address": "550 Summit Street", "city": "Klawock", "zip": null, "pp.onres": 1.0 }, "geometry": { "type": "Point", "coordinates": [ -133.095965, 55.554886 ] } },
{ "type": "Feature", "properties": { "bwc_id": 19.0, "state": "AK", "county": "2", "polling.name": "Community Center\n", "address": "105 Charles W Street", "city": "Petersburg", "zip": null, "pp.onres": 1.0 }, "geometry": { "type": "Point", "coordinates": [ -132.955037, 56.814738 ] } },
{ "type": "Feature", "properties": { "bwc_id": 21.0, "state": "AK", "county": "2", "polling.name": "Harrigan Centennial Hall\n", "address": "330 Harbor Dr", "city": "Sitka", "zip": null, "pp.onres": 0.0 }, "geometry": { "type": "Point", "coordinates": [ -135.332664, 57.050427 ] } },
{ "type": "Feature", "properties": { "bwc_id": 22.0, "state": "AK", "county": "2", "polling.name": "Harrigan Centennial Hall\n", "address": "330 Harbor Dr", "city": "Sitka", "zip": null, "pp.onres": 0.0 }, "geometry": { "type": "Point", "coordinates": [ -135.332664, 57.050427 ] } },
{ "type": "Feature", "properties": { "bwc_id": 24.0, "state": "AK", "county": "2", "polling.name": "Thorne Bay City Hall\n", "address": "120 Freeman Dr", "city": "Thorne Bay", "zip": null, "pp.onres": 0.0 }, "geometry": { "type": "Point", "coordinates": [ -132.527285, 55.686251 ] } },
{ "type": "Feature", "properties": { "bwc_id": 26.0, "state": "AK", "county": "3", "polling.name": "UAS Recreation Center\n", "address": "12300 Mendenhall Loop Rd", "city": "Juneau", "zip": null, "pp.onres": 0.0 }, "geometry": { "type": "Point", "coordinates": [ -134.641177, 58.389347 ] } },
{ "type": "Feature", "properties": { "bwc_id": 27.0, "state": "AK", "county": "3", "polling.name": "Auke Bay Ferry Terminal\n", "address": "13485 Glacier Highway", "city": "Juneau", "zip": null, "pp.onres": 0.0 }, "geometry": { "type": "Point", "coordinates": [ -134.688046, 58.382246 ] } },
{ "type": "Feature", "properties": { "bwc_id": 28.0, "state": "AK", "county": "3", "polling.name": "Glacier Valley Baptist Church\n", "address": "3921 Mendenhall Loop Rd", "city": "Juneau", "zip": null, "pp.onres": 0.0 }, "geometry": { "type": "Point", "coordinates": [ -134.56989, 58.389486 ] } },
{ "type": "Feature", "properties": { "bwc_id": 31.0, "state": "AK", "county": "3", "polling.name": "Gustavus Community Center\n", "address": "1295 Gustavus Rd", "city": "Gustavus", "zip": null, "pp.onres": 0.0 }, "geometry": { "type": "Point", "coordinates": [ -135.727847, 58.412698 ] } },
{ "type": "Feature", "properties": { "bwc_id": 32.0, "state": "AK", "county": "3", "polling.name": "Alaska Native Brotherhood Hall\n", "address": "111 First Ave S", "city": "Haines", "zip": null, "pp.onres": 0.0 }, "geometry": { "type": "Point", "coordinates": [ -135.444037, 59.234242 ] } },
{ "type": "Feature", "properties": { "bwc_id": 35.0, "state": "AK", "county": "3", "polling.name": "Skagway Borough Office\n", "address": "700 Spring Street", "city": "Skagway", "zip": null, "pp.onres": 1.0 }, "geometry": { "type": "Point", "coordinates": [ -135.311838, 59.455832 ] } },
{ "type": "Feature", "properties": { "bwc_id": 36.0, "state": "AK", "county": "4", "polling.name": "Douglas Public Library\n", "address": "1016 3rd Street", "city": "Douglas", "zip": null, "pp.onres": 1.0 }, "geometry": { "type": "Point", "coordinates": [ -134.394921, 58.276746 ] } },
{ "type": "Feature", "properties": { "bwc_id": 38.0, "state": "AK", "county": "4", "polling.name": "State Of Alaska Library Archives Museum\n", "address": "395 Whittier St", "city": "Juneau", "zip": null, "pp.onres": 0.0 }, "geometry": { "type": "Point", "coordinates": [ -134.414268, 58.299791 ] } },
{ "type": "Feature", "properties": { "bwc_id": 41.0, "state": "AK", "county": "4", "polling.name": "Alaska Electrical Light & Power\n", "address": "5601 Tonsgard Ct", "city": "Juneau", "zip": null, "pp.onres": 0.0 }, "geometry": { "type": "Point", "coordinates": [ -134.497417, 58.354468 ] } },
{ "type": "Feature", "properties": { "bwc_id": 42.0, "state": "AK", "county": "4", "polling.name": "Mendenhall Mall\n", "address": "9107 Mendenhall Mall Rd Ste. 325", "city": "Juneau", "zip": null, "pp.onres": 0.0 }, "geometry": { "type": "Point", "coordinates": [ -134.585529, 58.371963 ] } },
{ "type": "Feature", "properties": { "bwc_id": 43.0, "state": "AK", "county": "4", "polling.name": "Juneau Fire Station\n", "address": "820 Glacier Avenue", "city": "Juneau", "zip": null, "pp.onres": 0.0 }, "geometry": { "type": "Point", "coordinates": [ -134.421023, 58.301021 ] } },
{ "type": "Feature", "properties": { "bwc_id": 44.0, "state": "AK", "county": "5", "polling.name": "Chiniak Public Library\n", "address": "43318 Spruce Way", "city": "Chiniak", "zip": null, "pp.onres": 0.0 }, "geometry": { "type": "Point", "coordinates": [ -152.234323, 57.612207 ] } },
{ "type": "Feature", "properties": { "bwc_id": 45.0, "state": "AK", "county": "5", "polling.name": "Womens Bay Fire Hall\n", "address": "538 Sargent Creek Road", "city": "Kodiak", "zip": null, "pp.onres": 0.0 }, "geometry": { "type": "Point", "coordinates": [ -152.579589, 57.714544 ] } },
{ "type": "Feature", "properties": { "bwc_id": 48.0, "state": "AK", "county": "5", "polling.name": "Community Teen Center\n", "address": "410 Cedar Street", "city": "Kodiak", "zip": null, "pp.onres": 0.0 }, "geometry": { "type": "Point", "coordinates": [ -152.406015, 57.791991 ] } },
{ "type": "Feature", "properties": { "bwc_id": 49.0, "state": "AK", "county": "5", "polling.name": "Bayside Fire Hall\n", "address": "4606 E Rezanof Drive", "city": "Kodiak", "zip": null, "pp.onres": 0.0 }, "geometry": { "type": "Point", "coordinates": [ -152.355907, 57.825706 ] } },
{ "type": "Feature", "properties": { "bwc_id": 52.0, "state": "AK", "county": "5", "polling.name": "Port Lions Community Building\n", "address": "207 Spruce Drive", "city": "Port Lions", "zip": null, "pp.onres": 1.0 }, "geometry": { "type": "Point", "coordinates": [ -152.884584, 57.866399 ] } },
{ "type": "Feature", "properties": { "bwc_id": 54.0, "state": "AK", "county": "5", "polling.name": "Seward City Hall\n", "address": "410 Adams St", "city": "Seward", "zip": null, "pp.onres": 0.0 }, "geometry": { "type": "Point", "coordinates": [ -149.439495, 60.102898 ] } },
{ "type": "Feature", "properties": { "bwc_id": 57.0, "state": "AK", "county": "6", "polling.name": "Homer Chamber Of Commerce\n", "address": "201 Sterling Highway", "city": "Homer", "zip": null, "pp.onres": 1.0 }, "geometry": { "type": "Point", "coordinates": [ -151.547834, 59.641373 ] } },
{ "type": "Feature", "properties": { "bwc_id": 58.0, "state": "AK", "county": "6", "polling.name": "Kachemak Emergency Services\n", "address": "53048 Ashwood Ave", "city": "Homer", "zip": null, "pp.onres": 1.0 }, "geometry": { "type": "Point", "coordinates": [ -151.259982, 59.743543 ] } },
{ "type": "Feature", "properties": { "bwc_id": 59.0, "state": "AK", "county": "6", "polling.name": "Homer City Council Chambers\n", "address": "491 E Pioneer Avenue", "city": "Homer", "zip": null, "pp.onres": 1.0 }, "geometry": { "type": "Point", "coordinates": [ -151.532535, 59.647368 ] } },
{ "type": "Feature", "properties": { "bwc_id": 60.0, "state": "AK", "county": "6", "polling.name": "Homer United Methodist Church\n", "address": "770 East End Rd", "city": "Homer", "zip": null, "pp.onres": 1.0 }, "geometry": { "type": "Point", "coordinates": [ -151.524482, 59.649612 ] } },
{ "type": "Feature", "properties": { "bwc_id": 61.0, "state": "AK", "county": "6", "polling.name": "Kachemak Community Center\n", "address": "59906 Bear Creek Drive", "city": "Homer", "zip": null, "pp.onres": 1.0 }, "geometry": { "type": "Point", "coordinates": [ -151.452993, 59.666561 ] } },
{ "type": "Feature", "properties": { "bwc_id": 62.0, "state": "AK", "county": "6", "polling.name": "Kasilof Community Church\n", "address": "51540 Mercantile Ave", "city": "Kasilof", "zip": null, "pp.onres": 1.0 }, "geometry": { "type": "Point", "coordinates": [ -151.25837, 60.320881 ] } },
{ "type": "Feature", "properties": { "bwc_id": 63.0, "state": "AK", "county": "6", "polling.name": "Ninilchik Community Center\n", "address": "15763 Kingsley Road", "city": "Ninilchik", "zip": null, "pp.onres": 1.0 }, "geometry": { "type": "Point", "coordinates": [ -151.667186, 60.043217 ] } },
{ "type": "Feature", "properties": { "bwc_id": 64.0, "state": "AK", "county": "6", "polling.name": "Seldovia Library\n", "address": "260 Seldovia Street", "city": "Seldovia", "zip": null, "pp.onres": 1.0 }, "geometry": { "type": "Point", "coordinates": [ -151.714595, 59.438709 ] } },
{ "type": "Feature", "properties": { "bwc_id": 65.0, "state": "AK", "county": "7", "polling.name": "Soldotna Sports Center\n", "address": "538 Arena Ave", "city": "Soldotna", "zip": null, "pp.onres": 1.0 }, "geometry": { "type": "Point", "coordinates": [ -151.101626, 60.475458 ] } },
{ "type": "Feature", "properties": { "bwc_id": 66.0, "state": "AK", "county": "7", "polling.name": "Soldotna Sports Center\n", "address": "538 Arena Ave", "city": "Soldotna", "zip": null, "pp.onres": 1.0 }, "geometry": { "type": "Point", "coordinates": [ -151.101626, 60.475458 ] } },
{ "type": "Feature", "properties": { "bwc_id": 67.0, "state": "AK", "county": "7", "polling.name": "Kenai Mall\n", "address": "11312 Kenai Spur Hwy", "city": "Kenai", "zip": null, "pp.onres": 1.0 }, "geometry": { "type": "Point", "coordinates": [ -151.255483, 60.554664 ] } },
{ "type": "Feature", "properties": { "bwc_id": 68.0, "state": "AK", "county": "7", "polling.name": "Challenger Learning Center\n", "address": "9711 Kenai Spur Hwy", "city": "Kenai", "zip": null, "pp.onres": 1.0 }, "geometry": { "type": "Point", "coordinates": [ -151.216293, 60.562331 ] } },
{ "type": "Feature", "properties": { "bwc_id": 69.0, "state": "AK", "county": "7", "polling.name": "Kenai Mall\n", "address": "11312 Kenai Spur Hwy", "city": "Kenai", "zip": null, "pp.onres": 1.0 }, "geometry": { "type": "Point", "coordinates": [ -151.255483, 60.554664 ] } },
{ "type": "Feature", "properties": { "bwc_id": 70.0, "state": "AK", "county": "7", "polling.name": "Soldotna Public Library\n", "address": "235 N Binkley St", "city": "Soldotna", "zip": null, "pp.onres": 1.0 }, "geometry": { "type": "Point", "coordinates": [ -151.07249, 60.491931 ] } },
{ "type": "Feature", "properties": { "bwc_id": 71.0, "state": "AK", "county": "8", "polling.name": "Bear Creek Fire Hall\n", "address": "13105 Seward Hwy", "city": "Seward", "zip": null, "pp.onres": 0.0 }, "geometry": { "type": "Point", "coordinates": [ -149.401441, 60.169521 ] } },
{ "type": "Feature", "properties": { "bwc_id": 74.0, "state": "AK", "county": "8", "polling.name": "Soldotna Prep School\n", "address": "426 W Redoubt Ave", "city": "Soldotna", "zip": null, "pp.onres": 1.0 }, "geometry": { "type": "Point", "coordinates": [ -151.095403, 60.487838 ] } },
{ "type": "Feature", "properties": { "bwc_id": 76.0, "state": "AK", "county": "8", "polling.name": "Soldotna Prep School\n", "address": "426 W Redoubt Ave", "city": "Soldotna", "zip": null, "pp.onres": 1.0 }, "geometry": { "type": "Point", "coordinates": [ -151.095403, 60.487838 ] } },
{ "type": "Feature", "properties": { "bwc_id": 78.0, "state": "AK", "county": "8", "polling.name": "Nikiski Community Rec Center\n", "address": "50097 Kenai Spur Hwy", "city": "Nikiski", "zip": null, "pp.onres": 1.0 }, "geometry": { "type": "Point", "coordinates": [ -151.380455, 60.70296 ] } },
{ "type": "Feature", "properties": { "bwc_id": 79.0, "state": "AK", "county": "8", "polling.name": "Nikiski Community Rec Center\n", "address": "50097 Kenai Spur Hwy", "city": "Nikiski", "zip": null, "pp.onres": 1.0 }, "geometry": { "type": "Point", "coordinates": [ -151.380455, 60.70296 ] } },
{ "type": "Feature", "properties": { "bwc_id": 80.0, "state": "AK", "county": "8", "polling.name": "Sterling Community Center\n", "address": "38377 Swanson River Rd", "city": "Sterling", "zip": null, "pp.onres": 1.0 }, "geometry": { "type": "Point", "coordinates": [ -150.794488, 60.536092 ] } },
{ "type": "Feature", "properties": { "bwc_id": 81.0, "state": "AK", "county": "8", "polling.name": "Sterling Community Center\n", "address": "38377 Swanson River Rd", "city": "Sterling", "zip": null, "pp.onres": 1.0 }, "geometry": { "type": "Point", "coordinates": [ -150.794488, 60.536092 ] } },
{ "type": "Feature", "properties": { "bwc_id": 83.0, "state": "AK", "county": "9", "polling.name": "Valley Bible Chalet\n", "address": "29135 Seward Hwy", "city": "Indian", "zip": null, "pp.onres": 0.0 }, "geometry": { "type": "Point", "coordinates": [ -149.492897, 60.983773 ] } },
{ "type": "Feature", "properties": { "bwc_id": 84.0, "state": "AK", "county": "9", "polling.name": "Rabbit Creek Elementary School\n", "address": "13650 Lake Otis Pkwy", "city": "Anchorage", "zip": null, "pp.onres": 0.0 }, "geometry": { "type": "Point", "coordinates": [ -149.834089, 61.095896 ] } },
{ "type": "Feature", "properties": { "bwc_id": 85.0, "state": "AK", "county": "9", "polling.name": "South High School\n", "address": "13400 Elmore Rd", "city": "Anchorage", "zip": null, "pp.onres": 0.0 }, "geometry": { "type": "Point", "coordinates": [ -149.804261, 61.099592 ] } },
{ "type": "Feature", "properties": { "bwc_id": 86.0, "state": "AK", "county": "9", "polling.name": "Rabbit Creek Community Church\n", "address": "3401 Rabbit Creek Rd", "city": "Anchorage", "zip": null, "pp.onres": 0.0 }, "geometry": { "type": "Point", "coordinates": [ -149.81883, 61.083398 ] } },
{ "type": "Feature", "properties": { "bwc_id": 87.0, "state": "AK", "county": "9", "polling.name": "Goldenview Middle School\n", "address": "15800 Golden View Dr", "city": "Anchorage", "zip": null, "pp.onres": 0.0 }, "geometry": { "type": "Point", "coordinates": [ -149.774433, 61.077861 ] } },
{ "type": "Feature", "properties": { "bwc_id": 88.0, "state": "AK", "county": "9", "polling.name": "Bear Valley Elementary School\n", "address": "15001 Mountain Air Dr", "city": "Anchorage", "zip": null, "pp.onres": 0.0 }, "geometry": { "type": "Point", "coordinates": [ -149.752098, 61.085258 ] } },
{ "type": "Feature", "properties": { "bwc_id": 89.0, "state": "AK", "county": "9", "polling.name": "Benny Benson School\n", "address": "4515 Campbell Airstrip Rd", "city": "Anchorage", "zip": null, "pp.onres": 0.0 }, "geometry": { "type": "Point", "coordinates": [ -149.762837, 61.179026 ] } },
{ "type": "Feature", "properties": { "bwc_id": 91.0, "state": "AK", "county": "10", "polling.name": "Kingdom Life Church\n", "address": "1301 W 100th Ave", "city": "Anchorage", "zip": null, "pp.onres": 0.0 }, "geometry": { "type": "Point", "coordinates": [ -149.904214, 61.13035 ] } },
{ "type": "Feature", "properties": { "bwc_id": 92.0, "state": "AK", "county": "10", "polling.name": "Christ Community Church\n", "address": "2222 W 100th Ave", "city": "Anchorage", "zip": null, "pp.onres": 0.0 }, "geometry": { "type": "Point", "coordinates": [ -149.92144, 61.130142 ] } },
{ "type": "Feature", "properties": { "bwc_id": 93.0, "state": "AK", "county": "10", "polling.name": "Klatt Elementary School\n", "address": "11900 Puma St", "city": "Anchorage", "zip": null, "pp.onres": 0.0 }, "geometry": { "type": "Point", "coordinates": [ -149.907098, 61.112333 ] } },
{ "type": "Feature", "properties": { "bwc_id": 94.0, "state": "AK", "county": "10", "polling.name": "Ocean View Elementary School\n", "address": "11911 Johns Rd", "city": "Anchorage", "zip": null, "pp.onres": 0.0 }, "geometry": { "type": "Point", "coordinates": [ -149.878639, 61.112312 ] } },
{ "type": "Feature", "properties": { "bwc_id": 95.0, "state": "AK", "county": "10", "polling.name": "Christ Our Savior Lutheran Church\n", "address": "1612 Oceanview Dr", "city": "Anchorage", "zip": null, "pp.onres": 0.0 }, "geometry": { "type": "Point", "coordinates": [ -149.85245, 61.099542 ] } },
{ "type": "Feature", "properties": { "bwc_id": 96.0, "state": "AK", "county": "10", "polling.name": "Sunset Hills Baptist Church\n", "address": "12130 Old Seward Hwy", "city": "Anchorage", "zip": null, "pp.onres": 0.0 }, "geometry": { "type": "Point", "coordinates": [ -149.864091, 61.110812 ] } },
{ "type": "Feature", "properties": { "bwc_id": 97.0, "state": "AK", "county": "11", "polling.name": "Hanshew Middle School\n", "address": "10121 Lake Otis Pkwy", "city": "Anchorage", "zip": null, "pp.onres": 0.0 }, "geometry": { "type": "Point", "coordinates": [ -149.83367, 61.130063 ] } },
{ "type": "Feature", "properties": { "bwc_id": 98.0, "state": "AK", "county": "11", "polling.name": "Spring Hill Elementary School\n", "address": "9911 Lake Otis Pkwy", "city": "Anchorage", "zip": null, "pp.onres": 0.0 }, "geometry": { "type": "Point", "coordinates": [ -149.833574, 61.131904 ] } },
{ "type": "Feature", "properties": { "bwc_id": 99.0, "state": "AK", "county": "11", "polling.name": "Bowman Elementary School\n", "address": "11700 Gregory Rd", "city": "Anchorage", "zip": null, "pp.onres": 0.0 }, "geometry": { "type": "Point", "coordinates": [ -149.845351, 61.11408 ] } },
{ "type": "Feature", "properties": { "bwc_id": 100.0, "state": "AK", "county": "11", "polling.name": "Alaska Zoo\n", "address": "4731 O'Malley Rd", "city": "Anchorage", "zip": null, "pp.onres": 0.0 }, "geometry": { "type": "Point", "coordinates": [ -149.79377, 61.123138 ] } },
{ "type": "Feature", "properties": { "bwc_id": 101.0, "state": "AK", "county": "11", "polling.name": "Alaska Zoo\n", "address": "4731 O'Malley Rd", "city": "Anchorage", "zip": null, "pp.onres": 0.0 }, "geometry": { "type": "Point", "coordinates": [ -149.79377, 61.123138 ] } },
{ "type": "Feature", "properties": { "bwc_id": 102.0, "state": "AK", "county": "11", "polling.name": "O'Malley Elementary School\n", "address": "11100 Rockridge Dr", "city": "Anchorage", "zip": null, "pp.onres": 0.0 }, "geometry": { "type": "Point", "coordinates": [ -149.767041, 61.120272 ] } },
{ "type": "Feature", "properties": { "bwc_id": 103.0, "state": "AK", "county": "11", "polling.name": "Seventh Day Adventist Conference Office\n", "address": "6100 O'Malley Rd", "city": "Anchorage", "zip": null, "pp.onres": 0.0 }, "geometry": { "type": "Point", "coordinates": [ -149.76877, 61.122992 ] } },
{ "type": "Feature", "properties": { "bwc_id": 104.0, "state": "AK", "county": "12", "polling.name": "Northern Lights Abc\n", "address": "2424 E Dowling Rd", "city": "Anchorage", "zip": null, "pp.onres": 0.0 }, "geometry": { "type": "Point", "coordinates": [ -149.835585, 61.166322 ] } },
{ "type": "Feature", "properties": { "bwc_id": 106.0, "state": "AK", "county": "12", "polling.name": "Moa Public Works Dept\n", "address": "4700 Elmore Rd", "city": "Anchorage", "zip": null, "pp.onres": 0.0 }, "geometry": { "type": "Point", "coordinates": [ -149.808372, 61.178092 ] } },
{ "type": "Feature", "properties": { "bwc_id": 107.0, "state": "AK", "county": "12", "polling.name": "Kasuun Elementary School\n", "address": "4000 E 68th Ave", "city": "Anchorage", "zip": null, "pp.onres": 0.0 }, "geometry": { "type": "Point", "coordinates": [ -149.80907, 61.159112 ] } },
{ "type": "Feature", "properties": { "bwc_id": 108.0, "state": "AK", "county": "12", "polling.name": "Service High School\n", "address": "5577 Abbott Rd", "city": "Anchorage", "zip": null, "pp.onres": 0.0 }, "geometry": { "type": "Point", "coordinates": [ -149.77836, 61.137578 ] } },
{ "type": "Feature", "properties": { "bwc_id": 109.0, "state": "AK", "county": "12", "polling.name": "Service High School\n", "address": "5577 Abbott Rd", "city": "Anchorage", "zip": null, "pp.onres": 0.0 }, "geometry": { "type": "Point", "coordinates": [ -149.77836, 61.137578 ] } },
{ "type": "Feature", "properties": { "bwc_id": 110.0, "state": "AK", "county": "13", "polling.name": "Plumbers And Steamfitters Hall\n", "address": "610 W 54th Ave", "city": "Anchorage", "zip": null, "pp.onres": 0.0 }, "geometry": { "type": "Point", "coordinates": [ -149.89402, 61.171662 ] } },
{ "type": "Feature", "properties": { "bwc_id": 111.0, "state": "AK", "county": "13", "polling.name": "Campbell Elementary School\n", "address": "7206 Rovenna St", "city": "Anchorage", "zip": null, "pp.onres": 0.0 }, "geometry": { "type": "Point", "coordinates": [ -149.899722, 61.154842 ] } },
{ "type": "Feature", "properties": { "bwc_id": 113.0, "state": "AK", "county": "13", "polling.name": "Taku Elementary School\n", "address": "701 E 72nd Ave", "city": "Anchorage", "zip": null, "pp.onres": 0.0 }, "geometry": { "type": "Point", "coordinates": [ -149.87007, 61.155628 ] } },
{ "type": "Feature", "properties": { "bwc_id": 114.0, "state": "AK", "county": "13", "polling.name": "Tudor Elementary School\n", "address": "1666 Cache Dr", "city": "Anchorage", "zip": null, "pp.onres": 0.0 }, "geometry": { "type": "Point", "coordinates": [ -149.848669, 61.174602 ] } },
{ "type": "Feature", "properties": { "bwc_id": 115.0, "state": "AK", "county": "14", "polling.name": "Romig Middle School\n", "address": "2500 Minnesota Dr", "city": "Anchorage", "zip": null, "pp.onres": 0.0 }, "geometry": { "type": "Point", "coordinates": [ -149.913362, 61.198182 ] } },
{ "type": "Feature", "properties": { "bwc_id": 116.0, "state": "AK", "county": "14", "polling.name": "Boys And Girls Club\n", "address": "2300 W 36th Ave", "city": "Anchorage", "zip": null, "pp.onres": 0.0 }, "geometry": { "type": "Point", "coordinates": [ -149.925182, 61.187993 ] } },
{ "type": "Feature", "properties": { "bwc_id": 117.0, "state": "AK", "county": "14", "polling.name": "Northwood Elementary School\n", "address": "4807 Northwood Dr", "city": "Anchorage", "zip": null, "pp.onres": 0.0 }, "geometry": { "type": "Point", "coordinates": [ -149.927678, 61.176212 ] } },
{ "type": "Feature", "properties": { "bwc_id": 118.0, "state": "AK", "county": "14", "polling.name": "Steller Secondary School\n", "address": "2508 Blueberry Rd", "city": "Anchorage", "zip": null, "pp.onres": 0.0 }, "geometry": { "type": "Point", "coordinates": [ -149.892157, 61.197159 ] } },
{ "type": "Feature", "properties": { "bwc_id": 119.0, "state": "AK", "county": "14", "polling.name": "Willow Crest Elementary School\n", "address": "1004 W Tudor Rd", "city": "Anchorage", "zip": null, "pp.onres": 0.0 }, "geometry": { "type": "Point", "coordinates": [ -149.903324, 61.180615 ] } },
{ "type": "Feature", "properties": { "bwc_id": 120.0, "state": "AK", "county": "14", "polling.name": "Loussac Library\n", "address": "3600 Denali St", "city": "Anchorage", "zip": null, "pp.onres": 0.0 }, "geometry": { "type": "Point", "coordinates": [ -149.876783, 61.187386 ] } },
{ "type": "Feature", "properties": { "bwc_id": 121.0, "state": "AK", "county": "14", "polling.name": "Rogers Park Elementary School\n", "address": "1400 E Northern Lights Blvd", "city": "Anchorage", "zip": null, "pp.onres": 0.0 }, "geometry": { "type": "Point", "coordinates": [ -149.85657, 61.195302 ] } },
{ "type": "Feature", "properties": { "bwc_id": 122.0, "state": "AK", "county": "15", "polling.name": "Jewel Lake Community Church\n", "address": "4025 W 88th Ave", "city": "Anchorage", "zip": null, "pp.onres": 0.0 }, "geometry": { "type": "Point", "coordinates": [ -149.95509, 61.141158 ] } },
{ "type": "Feature", "properties": { "bwc_id": 123.0, "state": "AK", "county": "15", "polling.name": "Sand Lake Elementary School\n", "address": "7500 Jewel Lake Rd", "city": "Anchorage", "zip": null, "pp.onres": 0.0 }, "geometry": { "type": "Point", "coordinates": [ -149.95204, 61.152883 ] } },
{ "type": "Feature", "properties": { "bwc_id": 124.0, "state": "AK", "county": "15", "polling.name": "Dimond High School\n", "address": "2909 W 88th Ave", "city": "Anchorage", "zip": null, "pp.onres": 0.0 }, "geometry": { "type": "Point", "coordinates": [ -149.93675, 61.141158 ] } },
{ "type": "Feature", "properties": { "bwc_id": 125.0, "state": "AK", "county": "15", "polling.name": "Chinook Elementary School\n", "address": "3101 W 88th Ave", "city": "Anchorage", "zip": null, "pp.onres": 0.0 }, "geometry": { "type": "Point", "coordinates": [ -149.93987, 61.141158 ] } },
{ "type": "Feature", "properties": { "bwc_id": 126.0, "state": "AK", "county": "15", "polling.name": "Mears Middle School\n", "address": "2700 W 100th Ave", "city": "Anchorage", "zip": null, "pp.onres": 0.0 }, "geometry": { "type": "Point", "coordinates": [ -149.93246, 61.130172 ] } },
{ "type": "Feature", "properties": { "bwc_id": 127.0, "state": "AK", "county": "15", "polling.name": "Bayshore Elementary School\n", "address": "10500 Bayshore Dr", "city": "Anchorage", "zip": null, "pp.onres": 0.0 }, "geometry": { "type": "Point", "coordinates": [ -149.939063, 61.126171 ] } },
{ "type": "Feature", "properties": { "bwc_id": 128.0, "state": "AK", "county": "16", "polling.name": "Turnagain United Methodist Church\n", "address": "3300 W Northern Lights Blvd", "city": "Anchorage", "zip": null, "pp.onres": 0.0 }, "geometry": { "type": "Point", "coordinates": [ -149.94649, 61.195183 ] } },
{ "type": "Feature", "properties": { "bwc_id": 129.0, "state": "AK", "county": "16", "polling.name": "Turnagain Elementary School\n", "address": "3500 W Northern Lights Blvd", "city": "Anchorage", "zip": null, "pp.onres": 0.0 }, "geometry": { "type": "Point", "coordinates": [ -149.950169, 61.195212 ] } },
{ "type": "Feature", "properties": { "bwc_id": 130.0, "state": "AK", "county": "16", "polling.name": "Lake Hood Elementary School\n", "address": "3601 W 40th Ave", "city": "Anchorage", "zip": null, "pp.onres": 0.0 }, "geometry": { "type": "Point", "coordinates": [ -149.95412, 61.184548 ] } },
{ "type": "Feature", "properties": { "bwc_id": 131.0, "state": "AK", "county": "16", "polling.name": "Spenard Recreation Center\n", "address": "2020 W 48th Ave", "city": "Anchorage", "zip": null, "pp.onres": 0.0 }, "geometry": { "type": "Point", "coordinates": [ -149.92116, 61.177162 ] } },
{ "type": "Feature", "properties": { "bwc_id": 132.0, "state": "AK", "county": "16", "polling.name": "Filipino Bible Church\n", "address": "3340 Raspberry Rd", "city": "Anchorage", "zip": null, "pp.onres": 0.0 }, "geometry": { "type": "Point", "coordinates": [ -149.943259, 61.159072 ] } },
{ "type": "Feature", "properties": { "bwc_id": 133.0, "state": "AK", "county": "16", "polling.name": "Kinkaid Elementary School\n", "address": "4900 Raspberry Rd", "city": "Anchorage", "zip": null, "pp.onres": 0.0 }, "geometry": { "type": "Point", "coordinates": [ -149.97233, 61.158982 ] } },
{ "type": "Feature", "properties": { "bwc_id": 134.0, "state": "AK", "county": "16", "polling.name": "Gladys Wood Elementary School\n", "address": "7001 Cranberry St", "city": "Anchorage", "zip": null, "pp.onres": 0.0 }, "geometry": { "type": "Point", "coordinates": [ -149.936816, 61.156132 ] } },
{ "type": "Feature", "properties": { "bwc_id": 135.0, "state": "AK", "county": "17", "polling.name": "First United Methodist Church\n", "address": "725 W 9th Ave", "city": "Anchorage", "zip": null, "pp.onres": 0.0 }, "geometry": { "type": "Point", "coordinates": [ -149.897369, 61.213698 ] } },
{ "type": "Feature", "properties": { "bwc_id": 136.0, "state": "AK", "county": "17", "polling.name": "Central Middle School\n", "address": "1405 E St", "city": "Anchorage", "zip": null, "pp.onres": 0.0 }, "geometry": { "type": "Point", "coordinates": [ -149.891298, 61.208772 ] } },
{ "type": "Feature", "properties": { "bwc_id": 137.0, "state": "AK", "county": "17", "polling.name": "West High School\n", "address": "1700 Hillcrest Dr", "city": "Anchorage", "zip": null, "pp.onres": 0.0 }, "geometry": { "type": "Point", "coordinates": [ -149.91642, 61.201599 ] } },
{ "type": "Feature", "properties": { "bwc_id": 138.0, "state": "AK", "county": "17", "polling.name": "North Star Elementary School\n", "address": "605 W Fireweed Ln", "city": "Anchorage", "zip": null, "pp.onres": 0.0 }, "geometry": { "type": "Point", "coordinates": [ -149.894019, 61.198684 ] } },
{ "type": "Feature", "properties": { "bwc_id": 139.0, "state": "AK", "county": "17", "polling.name": "Denali Montessori School\n", "address": "952 Cordova St", "city": "Anchorage", "zip": null, "pp.onres": 0.0 }, "geometry": { "type": "Point", "coordinates": [ -149.879331, 61.212722 ] } },
{ "type": "Feature", "properties": { "bwc_id": 140.0, "state": "AK", "county": "17", "polling.name": "Fairview Recreation Center\n", "address": "1121 E 10th Ave", "city": "Anchorage", "zip": null, "pp.onres": 0.0 }, "geometry": { "type": "Point", "coordinates": [ -149.862689, 61.212698 ] } },
{ "type": "Feature", "properties": { "bwc_id": 141.0, "state": "AK", "county": "17", "polling.name": "Fairview Elementary School\n", "address": "1327 Nelchina St", "city": "Anchorage", "zip": null, "pp.onres": 0.0 }, "geometry": { "type": "Point", "coordinates": [ -149.856573, 61.209369 ] } },
{ "type": "Feature", "properties": { "bwc_id": 142.0, "state": "AK", "county": "18", "polling.name": "Government Hill Elementary School\n", "address": "525 E Bluff Dr", "city": "Anchorage", "zip": null, "pp.onres": 0.0 }, "geometry": { "type": "Point", "coordinates": [ -149.870289, 61.23103 ] } },
{ "type": "Feature", "properties": { "bwc_id": 145.0, "state": "AK", "county": "18", "polling.name": "Bartlett High School\n", "address": "1101 Golden Bear Dr", "city": "Anchorage", "zip": null, "pp.onres": 0.0 }, "geometry": { "type": "Point", "coordinates": [ -149.736908, 61.231641 ] } },
{ "type": "Feature", "properties": { "bwc_id": 146.0, "state": "AK", "county": "18", "polling.name": "Moa Voting Center\n", "address": "619 E Ship Creek Ave", "city": "Anchorage", "zip": null, "pp.onres": 0.0 }, "geometry": { "type": "Point", "coordinates": [ -149.872032, 61.222792 ] } },
{ "type": "Feature", "properties": { "bwc_id": 147.0, "state": "AK", "county": "19", "polling.name": "Airport Heights Elementary School\n", "address": "1510 Alder Dr", "city": "Anchorage", "zip": null, "pp.onres": 0.0 }, "geometry": { "type": "Point", "coordinates": [ -149.829053, 61.206442 ] } },
{ "type": "Feature", "properties": { "bwc_id": 148.0, "state": "AK", "county": "19", "polling.name": "Williwaw Elementary School\n", "address": "1200 San Antonio St", "city": "Anchorage", "zip": null, "pp.onres": 0.0 }, "geometry": { "type": "Point", "coordinates": [ -149.795362, 61.210882 ] } },
{ "type": "Feature", "properties": { "bwc_id": 149.0, "state": "AK", "county": "19", "polling.name": "Mt View Elementary School\n", "address": "4005 Mcphee Ave", "city": "Anchorage", "zip": null, "pp.onres": 0.0 }, "geometry": { "type": "Point", "coordinates": [ -149.806319, 61.231448 ] } },
{ "type": "Feature", "properties": { "bwc_id": 151.0, "state": "AK", "county": "19", "polling.name": "Clark Middle School\n", "address": "150 Bragaw St", "city": "Anchorage", "zip": null, "pp.onres": 0.0 }, "geometry": { "type": "Point", "coordinates": [ -149.808661, 61.222817 ] } },
{ "type": "Feature", "properties": { "bwc_id": 152.0, "state": "AK", "county": "20", "polling.name": "East High School\n", "address": "4025 E Northern Lights Blvd", "city": "Anchorage", "zip": null, "pp.onres": 0.0 }, "geometry": { "type": "Point", "coordinates": [ -149.80573, 61.199018 ] } },
{ "type": "Feature", "properties": { "bwc_id": 153.0, "state": "AK", "county": "20", "polling.name": "YMCA\n", "address": "5353 Lake Otis Pkwy", "city": "Anchorage", "zip": null, "pp.onres": 0.0 }, "geometry": { "type": "Point", "coordinates": [ -149.83802, 61.172101 ] } },
{ "type": "Feature", "properties": { "bwc_id": 154.0, "state": "AK", "county": "20", "polling.name": "College Gate Elementary School\n", "address": "3101 Sunflower St", "city": "Anchorage", "zip": null, "pp.onres": 0.0 }, "geometry": { "type": "Point", "coordinates": [ -149.784974, 61.191811 ] } },
{ "type": "Feature", "properties": { "bwc_id": 155.0, "state": "AK", "county": "20", "polling.name": "Alaska Housing Finance Corporation Bldg\n", "address": "4300 Boniface Pkwy", "city": "Anchorage", "zip": null, "pp.onres": 0.0 }, "geometry": { "type": "Point", "coordinates": [ -149.778494, 61.181541 ] } },
{ "type": "Feature", "properties": { "bwc_id": 156.0, "state": "AK", "county": "20", "polling.name": "Anchorage School District Bldg\n", "address": "5530 E Northern Lights Blvd", "city": "Anchorage", "zip": null, "pp.onres": 0.0 }, "geometry": { "type": "Point", "coordinates": [ -149.777416, 61.195113 ] } },
{ "type": "Feature", "properties": { "bwc_id": 157.0, "state": "AK", "county": "21", "polling.name": "Nunaka Valley Elementary School\n", "address": "1905 Twining Dr", "city": "Anchorage", "zip": null, "pp.onres": 0.0 }, "geometry": { "type": "Point", "coordinates": [ -149.776856, 61.202912 ] } },
{ "type": "Feature", "properties": { "bwc_id": 158.0, "state": "AK", "county": "21", "polling.name": "Begich Middle School\n", "address": "7440 Creekside Center Dr", "city": "Anchorage", "zip": null, "pp.onres": 0.0 }, "geometry": { "type": "Point", "coordinates": [ -149.740776, 61.20763 ] } },
{ "type": "Feature", "properties": { "bwc_id": 159.0, "state": "AK", "county": "21", "polling.name": "St Patrick's Parish\n", "address": "2111 Muldoon Rd", "city": "Anchorage", "zip": null, "pp.onres": 0.0 }, "geometry": { "type": "Point", "coordinates": [ -149.733308, 61.201742 ] } },
{ "type": "Feature", "properties": { "bwc_id": 160.0, "state": "AK", "county": "21", "polling.name": "Baxter Elementary School\n", "address": "2991 Baxter Rd", "city": "Anchorage", "zip": null, "pp.onres": 0.0 }, "geometry": { "type": "Point", "coordinates": [ -149.763268, 61.19354 ] } },
{ "type": "Feature", "properties": { "bwc_id": 161.0, "state": "AK", "county": "21", "polling.name": "Scenic Park Elementary School\n", "address": "3933 Patterson St", "city": "Anchorage", "zip": null, "pp.onres": 0.0 }, "geometry": { "type": "Point", "coordinates": [ -149.748278, 61.185322 ] } },
{ "type": "Feature", "properties": { "bwc_id": 162.0, "state": "AK", "county": "22", "polling.name": "Wonder Park Elementary School\n", "address": "5101 E 4th Ave", "city": "Anchorage", "zip": null, "pp.onres": 0.0 }, "geometry": { "type": "Point", "coordinates": [ -149.784649, 61.218728 ] } },
{ "type": "Feature", "properties": { "bwc_id": 163.0, "state": "AK", "county": "22", "polling.name": "Ptarmigan Elementary School\n", "address": "888 Edward St", "city": "Anchorage", "zip": null, "pp.onres": 0.0 }, "geometry": { "type": "Point", "coordinates": [ -149.763552, 61.214172 ] } },
{ "type": "Feature", "properties": { "bwc_id": 164.0, "state": "AK", "county": "22", "polling.name": "Creekside Park Elementary School\n", "address": "7500 E 6th Ave", "city": "Anchorage", "zip": null, "pp.onres": 0.0 }, "geometry": { "type": "Point", "coordinates": [ -149.744549, 61.216872 ] } },
{ "type": "Feature", "properties": { "bwc_id": 165.0, "state": "AK", "county": "22", "polling.name": "Muldoon Elementary School\n", "address": "525 Cherry St", "city": "Anchorage", "zip": null, "pp.onres": 0.0 }, "geometry": { "type": "Point", "coordinates": [ -149.722078, 61.217042 ] } },
{ "type": "Feature", "properties": { "bwc_id": 166.0, "state": "AK", "county": "23", "polling.name": "Ravenwood Elementary School\n", "address": "9500 Wren Cir", "city": "Eagle River", "zip": null, "pp.onres": 0.0 }, "geometry": { "type": "Point", "coordinates": [ -149.502392, 61.306152 ] } },
{ "type": "Feature", "properties": { "bwc_id": 167.0, "state": "AK", "county": "23", "polling.name": "Eagle River Elementary School\n", "address": "10900 Old Eagle River Rd", "city": "Eagle River", "zip": null, "pp.onres": 0.0 }, "geometry": { "type": "Point", "coordinates": [ -149.569066, 61.319835 ] } },
{ "type": "Feature", "properties": { "bwc_id": 168.0, "state": "AK", "county": "23", "polling.name": "Alpenglow Elementary School\n", "address": "19201 Driftwood Bay Dr", "city": "Eagle River", "zip": null, "pp.onres": 0.0 }, "geometry": { "type": "Point", "coordinates": [ -149.526882, 61.300794 ] } },
{ "type": "Feature", "properties": { "bwc_id": 169.0, "state": "AK", "county": "23", "polling.name": "Eagle River High School\n", "address": "8701 Wolf Den Dr", "city": "Eagle River", "zip": null, "pp.onres": 0.0 }, "geometry": { "type": "Point", "coordinates": [ -149.576098, 61.299119 ] } },
{ "type": "Feature", "properties": { "bwc_id": 170.0, "state": "AK", "county": "23", "polling.name": "Homestead Elementary School\n", "address": "18001 Baronoff Ave", "city": "Eagle River", "zip": null, "pp.onres": 0.0 }, "geometry": { "type": "Point", "coordinates": [ -149.546319, 61.314418 ] } },
{ "type": "Feature", "properties": { "bwc_id": 171.0, "state": "AK", "county": "23", "polling.name": "Joy Lutheran Church\n", "address": "10111 E Eagle River Loop Rd", "city": "Eagle River", "zip": null, "pp.onres": 0.0 }, "geometry": { "type": "Point", "coordinates": [ -149.538646, 61.311654 ] } },
{ "type": "Feature", "properties": { "bwc_id": 172.0, "state": "AK", "county": "24", "polling.name": "Skyline Family Fellowship\n", "address": "18239 N Eagle River Loop Rd", "city": "Eagle River", "zip": null, "pp.onres": 0.0 }, "geometry": { "type": "Point", "coordinates": [ -149.540549, 61.322845 ] } },
{ "type": "Feature", "properties": { "bwc_id": 173.0, "state": "AK", "county": "24", "polling.name": "Chugiak High School\n", "address": "16525 Birchwood Loop Rd", "city": "Chugiak", "zip": null, "pp.onres": 0.0 }, "geometry": { "type": "Point", "coordinates": [ -149.538718, 61.369491 ] } },
{ "type": "Feature", "properties": { "bwc_id": 175.0, "state": "AK", "county": "24", "polling.name": "Mirror Lake Middle School\n", "address": "22901 Lake Hill Dr", "city": "Chugiak", "zip": null, "pp.onres": 0.0 }, "geometry": { "type": "Point", "coordinates": [ -149.427475, 61.426712 ] } },
{ "type": "Feature", "properties": { "bwc_id": 176.0, "state": "AK", "county": "24", "polling.name": "Fire Lake Elementary School\n", "address": "13801 Harry Mcdonald Rd", "city": "Eagle River", "zip": null, "pp.onres": 0.0 }, "geometry": { "type": "Point", "coordinates": [ -149.551937, 61.344684 ] } },
{ "type": "Feature", "properties": { "bwc_id": 177.0, "state": "AK", "county": "24", "polling.name": "Bridge Of Hope Apostolic Center\n", "address": "20640 Chapel Dr", "city": "Chugiak", "zip": null, "pp.onres": 0.0 }, "geometry": { "type": "Point", "coordinates": [ -149.450365, 61.406091 ] } },
{ "type": "Feature", "properties": { "bwc_id": 178.0, "state": "AK", "county": "24", "polling.name": "Bridge Of Hope Apostolic Center\n", "address": "20640 Chapel Dr", "city": "Chugiak", "zip": null, "pp.onres": 0.0 }, "geometry": { "type": "Point", "coordinates": [ -149.450365, 61.406091 ] } },
{ "type": "Feature", "properties": { "bwc_id": 179.0, "state": "AK", "county": "25", "polling.name": "Butte Elementary School\n", "address": "4006 S Butte Rd", "city": "Palmer", "zip": null, "pp.onres": 1.0 }, "geometry": { "type": "Point", "coordinates": [ -149.00616, 61.537851 ] } },
{ "type": "Feature", "properties": { "bwc_id": 180.0, "state": "AK", "county": "25", "polling.name": "Palmer Community Center\n", "address": "610 S Valley Way", "city": "Palmer", "zip": null, "pp.onres": 1.0 }, "geometry": { "type": "Point", "coordinates": [ -149.113282, 61.599625 ] } },
{ "type": "Feature", "properties": { "bwc_id": 181.0, "state": "AK", "county": "25", "polling.name": "Lazy Mountain Bible Church\n", "address": "16005 E Shawn Dr", "city": "Palmer", "zip": null, "pp.onres": 1.0 }, "geometry": { "type": "Point", "coordinates": [ -149.047089, 61.611233 ] } },
{ "type": "Feature", "properties": { "bwc_id": 182.0, "state": "AK", "county": "25", "polling.name": "Matsu Borough Building\n", "address": "350 E Dahlia Ave", "city": "Palmer", "zip": null, "pp.onres": 1.0 }, "geometry": { "type": "Point", "coordinates": [ -149.108053, 61.600022 ] } },
{ "type": "Feature", "properties": { "bwc_id": 183.0, "state": "AK", "county": "25", "polling.name": "Matsu School District Building\n", "address": "501 N Gulkana St", "city": "Palmer", "zip": null, "pp.onres": 1.0 }, "geometry": { "type": "Point", "coordinates": [ -149.103023, 61.611011 ] } },
{ "type": "Feature", "properties": { "bwc_id": 184.0, "state": "AK", "county": "25", "polling.name": "Palmer 7th Day Adventist Church\n", "address": "2238 S Inner Springer Lp", "city": "Palmer", "zip": null, "pp.onres": 1.0 }, "geometry": { "type": "Point", "coordinates": [ -149.148298, 61.570672 ] } },
{ "type": "Feature", "properties": { "bwc_id": 185.0, "state": "AK", "county": "25", "polling.name": "Colony High School\n", "address": "9550 E Bogard Rd", "city": "Palmer", "zip": null, "pp.onres": 1.0 }, "geometry": { "type": "Point", "coordinates": [ -149.211146, 61.609909 ] } },
{ "type": "Feature", "properties": { "bwc_id": 186.0, "state": "AK", "county": "26", "polling.name": "Machentanz Elementary School\n", "address": "4961 E Nelson Rd", "city": "Wasilla", "zip": null, "pp.onres": 1.0 }, "geometry": { "type": "Point", "coordinates": [ -149.320572, 61.548157 ] } },
{ "type": "Feature", "properties": { "bwc_id": 188.0, "state": "AK", "county": "26", "polling.name": "Knik Elementary School\n", "address": "6350 W Hollywood Rd", "city": "Wasilla", "zip": null, "pp.onres": 1.0 }, "geometry": { "type": "Point", "coordinates": [ -149.610798, 61.541572 ] } },
{ "type": "Feature", "properties": { "bwc_id": 189.0, "state": "AK", "county": "26", "polling.name": "Central Matsu Fire Station 62\n", "address": "4568 S Knik Goose Bay Rd", "city": "Wasilla", "zip": null, "pp.onres": 1.0 }, "geometry": { "type": "Point", "coordinates": [ -149.606224, 61.530496 ] } },
{ "type": "Feature", "properties": { "bwc_id": 190.0, "state": "AK", "county": "26", "polling.name": "Knik Elementary School\n", "address": "6350 W Hollywood Rd", "city": "Wasilla", "zip": null, "pp.onres": 1.0 }, "geometry": { "type": "Point", "coordinates": [ -149.610798, 61.541572 ] } },
{ "type": "Feature", "properties": { "bwc_id": 191.0, "state": "AK", "county": "26", "polling.name": "Matanuska Susitna College\n", "address": "8295 E College Dr", "city": "Palmer", "zip": null, "pp.onres": 1.0 }, "geometry": { "type": "Point", "coordinates": [ -149.243746, 61.579756 ] } },
{ "type": "Feature", "properties": { "bwc_id": 192.0, "state": "AK", "county": "26", "polling.name": "Fairview Loop Baptist Church\n", "address": "3118 W Fairview Lp", "city": "Wasilla", "zip": null, "pp.onres": 1.0 }, "geometry": { "type": "Point", "coordinates": [ -149.524647, 61.527132 ] } },
{ "type": "Feature", "properties": { "bwc_id": 193.0, "state": "AK", "county": "27", "polling.name": "American Legion Post 35\n", "address": "4180 W Tweed Ct", "city": "Wasilla", "zip": null, "pp.onres": 1.0 }, "geometry": { "type": "Point", "coordinates": [ -149.555241, 61.585384 ] } },
{ "type": "Feature", "properties": { "bwc_id": 194.0, "state": "AK", "county": "27", "polling.name": "Meadow Lakes Elementary School\n", "address": "1741 N Pittman Rd", "city": "Wasilla", "zip": null, "pp.onres": 1.0 }, "geometry": { "type": "Point", "coordinates": [ -149.623307, 61.612147 ] } },
{ "type": "Feature", "properties": { "bwc_id": 195.0, "state": "AK", "county": "27", "polling.name": "West Lakes Fire Department Station 73\n", "address": "10073 W Parks Hwy", "city": "Wasilla", "zip": null, "pp.onres": 1.0 }, "geometry": { "type": "Point", "coordinates": [ -149.702973, 61.568879 ] } },
{ "type": "Feature", "properties": { "bwc_id": 196.0, "state": "AK", "county": "27", "polling.name": "Wasilla City Hall\n", "address": "290 E Herning Ave", "city": "Wasilla", "zip": null, "pp.onres": 1.0 }, "geometry": { "type": "Point", "coordinates": [ -149.443874, 61.582173 ] } },
{ "type": "Feature", "properties": { "bwc_id": 198.0, "state": "AK", "county": "28", "polling.name": "Finger Lake Elementary School\n", "address": "5981 E Eek St", "city": "Wasilla", "zip": null, "pp.onres": 1.0 }, "geometry": { "type": "Point", "coordinates": [ -149.301166, 61.608528 ] } },
{ "type": "Feature", "properties": { "bwc_id": 199.0, "state": "AK", "county": "28", "polling.name": "Pioneer Peak Elementary School\n", "address": "1959 N Stringfield Rd", "city": "Palmer", "zip": null, "pp.onres": 1.0 }, "geometry": { "type": "Point", "coordinates": [ -149.244015, 61.601182 ] } },
{ "type": "Feature", "properties": { "bwc_id": 200.0, "state": "AK", "county": "28", "polling.name": "Tanaina Elementary School\n", "address": "2550 N Lucille St", "city": "Wasilla", "zip": null, "pp.onres": 1.0 }, "geometry": { "type": "Point", "coordinates": [ -149.450974, 61.607942 ] } },
{ "type": "Feature", "properties": { "bwc_id": 201.0, "state": "AK", "county": "28", "polling.name": "Alcantra National Guard Armory\n", "address": "3401 E Bogard Rd", "city": "Wasilla", "zip": null, "pp.onres": 1.0 }, "geometry": { "type": "Point", "coordinates": [ -149.359734, 61.599247 ] } },
{ "type": "Feature", "properties": { "bwc_id": 202.0, "state": "AK", "county": "28", "polling.name": "White Fields Church\n", "address": "4800 E Palmer Wasilla Hwy", "city": "Wasilla", "zip": null, "pp.onres": 1.0 }, "geometry": { "type": "Point", "coordinates": [ -149.329545, 61.584902 ] } },
{ "type": "Feature", "properties": { "bwc_id": 203.0, "state": "AK", "county": "28", "polling.name": "Pioneer Peak Elementary School\n", "address": "1959 N Stringfield Rd", "city": "Palmer", "zip": null, "pp.onres": 1.0 }, "geometry": { "type": "Point", "coordinates": [ -149.244015, 61.601182 ] } },
{ "type": "Feature", "properties": { "bwc_id": 204.0, "state": "AK", "county": "28", "polling.name": "Cottonwood Creek Elementary School\n", "address": "800 N Seward Meridian Pkwy", "city": "Wasilla", "zip": null, "pp.onres": 1.0 }, "geometry": { "type": "Point", "coordinates": [ -149.36004, 61.589151 ] } },
{ "type": "Feature", "properties": { "bwc_id": 206.0, "state": "AK", "county": "29", "polling.name": "Government Peak Chalet\n", "address": "10690 N Mountain Trails Dr", "city": "Palmer", "zip": null, "pp.onres": 1.0 }, "geometry": { "type": "Point", "coordinates": [ -149.279055, 61.700281 ] } },
{ "type": "Feature", "properties": { "bwc_id": 207.0, "state": "AK", "county": "29", "polling.name": "Larson Elementary\n", "address": "2722 E Seldon Rd", "city": "Wasilla", "zip": null, "pp.onres": 1.0 }, "geometry": { "type": "Point", "coordinates": [ -149.384077, 61.613812 ] } },
{ "type": "Feature", "properties": { "bwc_id": 208.0, "state": "AK", "county": "29", "polling.name": "Matsu Career Tech High School\n", "address": "2472 N Seward Meridian Pkwy", "city": "Wasilla", "zip": null, "pp.onres": 1.0 }, "geometry": { "type": "Point", "coordinates": [ -149.360033, 61.607762 ] } },
{ "type": "Feature", "properties": { "bwc_id": 210.0, "state": "AK", "county": "29", "polling.name": "Sutton Library\n", "address": "11301 N Chickaloon Way", "city": "Sutton", "zip": null, "pp.onres": 1.0 }, "geometry": { "type": "Point", "coordinates": [ -148.877371, 61.710814 ] } },
{ "type": "Feature", "properties": { "bwc_id": 218.0, "state": "AK", "county": "30", "polling.name": "Pittman Fire House\n", "address": "1685 N Pittman Rd", "city": "Wasilla", "zip": null, "pp.onres": 1.0 }, "geometry": { "type": "Point", "coordinates": [ -149.626965, 61.611508 ] } },
{ "type": "Feature", "properties": { "bwc_id": 219.0, "state": "AK", "county": "30", "polling.name": "Tri Valley Community Center\n", "address": "5 Healy Spur Rd", "city": "Healy", "zip": null, "pp.onres": 0.0 }, "geometry": { "type": "Point", "coordinates": [ -149.004081, 63.8704 ] } },
{ "type": "Feature", "properties": { "bwc_id": 222.0, "state": "AK", "county": "30", "polling.name": "Trapper Creek Elementary School\n", "address": "6742 E Petersville Rd", "city": "Trapper Creek", "zip": null, "pp.onres": 1.0 }, "geometry": { "type": "Point", "coordinates": [ -150.305403, 62.317211 ] } },
{ "type": "Feature", "properties": { "bwc_id": 223.0, "state": "AK", "county": "30", "polling.name": "Susitna Valley High School\n", "address": "42728 S Parks Hwy", "city": "Talkeetna", "zip": null, "pp.onres": 1.0 }, "geometry": { "type": "Point", "coordinates": [ -150.039357, 62.133595 ] } },
{ "type": "Feature", "properties": { "bwc_id": 226.0, "state": "AK", "county": "31", "polling.name": "Agricultural Museum Fairgrounds\n", "address": "1800 College Road", "city": "Fairbanks", "zip": null, "pp.onres": 0.0 }, "geometry": { "type": "Point", "coordinates": [ -147.758236, 64.863414 ] } },
{ "type": "Feature", "properties": { "bwc_id": 227.0, "state": "AK", "county": "31", "polling.name": "Noel Wien Library\n", "address": "1215 Cowles Street", "city": "Fairbanks", "zip": null, "pp.onres": 0.0 }, "geometry": { "type": "Point", "coordinates": [ -147.738694, 64.838222 ] } },
{ "type": "Feature", "properties": { "bwc_id": 228.0, "state": "AK", "county": "31", "polling.name": "Pioneer Park Centennial Center\n", "address": "2300 Airport Way", "city": "Fairbanks", "zip": null, "pp.onres": 0.0 }, "geometry": { "type": "Point", "coordinates": [ -147.776765, 64.837048 ] } },
{ "type": "Feature", "properties": { "bwc_id": 229.0, "state": "AK", "county": "31", "polling.name": "Shoppers Forum\n", "address": "1255 Airport Way", "city": "Fairbanks", "zip": null, "pp.onres": 0.0 }, "geometry": { "type": "Point", "coordinates": [ -147.744705, 64.836627 ] } },
{ "type": "Feature", "properties": { "bwc_id": 230.0, "state": "AK", "county": "32", "polling.name": "Farewell Avenue Christian Church\n", "address": "100 Farewell Avenue", "city": "Fairbanks", "zip": null, "pp.onres": 0.0 }, "geometry": { "type": "Point", "coordinates": [ -147.689467, 64.844758 ] } },
{ "type": "Feature", "properties": { "bwc_id": 231.0, "state": "AK", "county": "32", "polling.name": "Tanana Middle School\n", "address": "600 Trainor Gate Road", "city": "Fairbanks", "zip": null, "pp.onres": 0.0 }, "geometry": { "type": "Point", "coordinates": [ -147.665323, 64.844441 ] } },
{ "type": "Feature", "properties": { "bwc_id": 232.0, "state": "AK", "county": "32", "polling.name": "Last Frontier Community Activity Center\n", "address": "1044 Apple St", "city": "Fort Wainwright", "zip": null, "pp.onres": 0.0 }, "geometry": { "type": "Point", "coordinates": [ -147.612518, 64.843121 ] } },
{ "type": "Feature", "properties": { "bwc_id": 233.0, "state": "AK", "county": "32", "polling.name": "Badger Plaza\n", "address": "771 Badger Road", "city": "North Pole", "zip": null, "pp.onres": 0.0 }, "geometry": { "type": "Point", "coordinates": [ -147.567611, 64.818234 ] } },
{ "type": "Feature", "properties": { "bwc_id": 234.0, "state": "AK", "county": "33", "polling.name": "New Hope Methodist Presbyterian Church\n", "address": "2371 Bradway Road", "city": "North Pole", "zip": null, "pp.onres": 0.0 }, "geometry": { "type": "Point", "coordinates": [ -147.406685, 64.805754 ] } },
{ "type": "Feature", "properties": { "bwc_id": 237.0, "state": "AK", "county": "33", "polling.name": "North Pole Plaza\n", "address": "301 N Santa Claus Lane", "city": "North Pole", "zip": null, "pp.onres": 0.0 }, "geometry": { "type": "Point", "coordinates": [ -147.352862, 64.756584 ] } },
{ "type": "Feature", "properties": { "bwc_id": 238.0, "state": "AK", "county": "33", "polling.name": "North Pole City Hall\n", "address": "125 Snowman Lane", "city": "North Pole", "zip": null, "pp.onres": 0.0 }, "geometry": { "type": "Point", "coordinates": [ -147.35094, 64.755218 ] } },
{ "type": "Feature", "properties": { "bwc_id": 239.0, "state": "AK", "county": "33", "polling.name": "North Pole Plaza\n", "address": "301 N Santa Claus Lane", "city": "North Pole", "zip": null, "pp.onres": 0.0 }, "geometry": { "type": "Point", "coordinates": [ -147.352862, 64.756584 ] } },
{ "type": "Feature", "properties": { "bwc_id": 242.0, "state": "AK", "county": "34", "polling.name": "Seventh Day Adventist Church\n", "address": "1811 Farmers Loop Road", "city": "Fairbanks", "zip": null, "pp.onres": 0.0 }, "geometry": { "type": "Point", "coordinates": [ -147.823685, 64.874046 ] } },
{ "type": "Feature", "properties": { "bwc_id": 243.0, "state": "AK", "county": "34", "polling.name": "Salcha Elementary School\n", "address": "8530 Richardson Highway", "city": "Salcha", "zip": null, "pp.onres": 0.0 }, "geometry": { "type": "Point", "coordinates": [ -146.979005, 64.48277 ] } },
{ "type": "Feature", "properties": { "bwc_id": 244.0, "state": "AK", "county": "34", "polling.name": "Weller Elementary School\n", "address": "635 Elementary Drive", "city": "Fairbanks", "zip": null, "pp.onres": 0.0 }, "geometry": { "type": "Point", "coordinates": [ -147.588851, 64.887967 ] } },
{ "type": "Feature", "properties": { "bwc_id": 245.0, "state": "AK", "county": "34", "polling.name": "Bentley Mall\n", "address": "32 College Road", "city": "Fairbanks", "zip": null, "pp.onres": 0.0 }, "geometry": { "type": "Point", "coordinates": [ -147.70304, 64.850629 ] } },
{ "type": "Feature", "properties": { "bwc_id": 246.0, "state": "AK", "county": "34", "polling.name": "Bentley Mall\n", "address": "32 College Road", "city": "Fairbanks", "zip": null, "pp.onres": 0.0 }, "geometry": { "type": "Point", "coordinates": [ -147.70304, 64.850629 ] } },
{ "type": "Feature", "properties": { "bwc_id": 247.0, "state": "AK", "county": "34", "polling.name": "Two Rivers Community Center\n", "address": "7234 Anders Avenue", "city": "Two Rivers", "zip": null, "pp.onres": 0.0 }, "geometry": { "type": "Point", "coordinates": [ -146.888166, 64.877828 ] } },
{ "type": "Feature", "properties": { "bwc_id": 248.0, "state": "AK", "county": "35", "polling.name": "Kornfeind Training Center\n", "address": "4782 Dale Road", "city": "Fairbanks", "zip": null, "pp.onres": 0.0 }, "geometry": { "type": "Point", "coordinates": [ -147.865057, 64.823868 ] } },
{ "type": "Feature", "properties": { "bwc_id": 249.0, "state": "AK", "county": "35", "polling.name": "Faith Baptist Church\n", "address": "910 Chena Pump Road", "city": "Fairbanks", "zip": null, "pp.onres": 0.0 }, "geometry": { "type": "Point", "coordinates": [ -147.891506, 64.827295 ] } },
{ "type": "Feature", "properties": { "bwc_id": 251.0, "state": "AK", "county": "35", "polling.name": "University Baptist Church\n", "address": "1197 University Avenue", "city": "Fairbanks", "zip": null, "pp.onres": 0.0 }, "geometry": { "type": "Point", "coordinates": [ -147.812579, 64.854157 ] } },
{ "type": "Feature", "properties": { "bwc_id": 252.0, "state": "AK", "county": "35", "polling.name": "Genes Chrysler Center\n", "address": "3400 S Cushman Street", "city": "Fairbanks", "zip": null, "pp.onres": 0.0 }, "geometry": { "type": "Point", "coordinates": [ -147.710932, 64.813971 ] } },
{ "type": "Feature", "properties": { "bwc_id": 253.0, "state": "AK", "county": "35", "polling.name": "Beaver Sports\n", "address": "3480 College Road", "city": "Fairbanks", "zip": null, "pp.onres": 0.0 }, "geometry": { "type": "Point", "coordinates": [ -147.807519, 64.856484 ] } },
{ "type": "Feature", "properties": { "bwc_id": 254.0, "state": "AK", "county": "35", "polling.name": "Effie Kokrine Charter School\n", "address": "601 Loftus Road", "city": "Fairbanks", "zip": null, "pp.onres": 0.0 }, "geometry": { "type": "Point", "coordinates": [ -147.843865, 64.846326 ] } },
{ "type": "Feature", "properties": { "bwc_id": 255.0, "state": "AK", "county": "35", "polling.name": "Woodriver Elementary School\n", "address": "5000 Palo Verde Avenue", "city": "Fairbanks", "zip": null, "pp.onres": 0.0 }, "geometry": { "type": "Point", "coordinates": [ -147.868363, 64.838709 ] } },
{ "type": "Feature", "properties": { "bwc_id": 256.0, "state": "AK", "county": "36", "polling.name": "Chena Goldstream Fire Station 3\n", "address": "1300 Goldstream Road", "city": "Fairbanks", "zip": null, "pp.onres": 0.0 }, "geometry": { "type": "Point", "coordinates": [ -147.787766, 64.943776 ] } },
{ "type": "Feature", "properties": { "bwc_id": 257.0, "state": "AK", "county": "36", "polling.name": "Ken Kunkel Community Center\n", "address": "2645 Goldstream Road", "city": "Fairbanks", "zip": null, "pp.onres": 0.0 }, "geometry": { "type": "Point", "coordinates": [ -147.914439, 64.913588 ] } },
{ "type": "Feature", "properties": { "bwc_id": 263.0, "state": "AK", "county": "36", "polling.name": "Central Corner\n", "address": "128 Steese Highway", "city": "Central", "zip": null, "pp.onres": 0.0 }, "geometry": { "type": "Point", "coordinates": [ -144.815043, 65.57098 ] } },
{ "type": "Feature", "properties": { "bwc_id": 267.0, "state": "AK", "county": "36", "polling.name": "Delta Junction Community Center\n", "address": "2287 Deborah Street", "city": "Delta Junction", "zip": null, "pp.onres": 0.0 }, "geometry": { "type": "Point", "coordinates": [ -145.738077, 64.046395 ] } },
{ "type": "Feature", "properties": { "bwc_id": 268.0, "state": "AK", "county": "36", "polling.name": "Delta Junction Community Center\n", "address": "2287 Deborah Street", "city": "Delta Junction", "zip": null, "pp.onres": 0.0 }, "geometry": { "type": "Point", "coordinates": [ -145.738077, 64.046395 ] } },
{ "type": "Feature", "properties": { "bwc_id": 269.0, "state": "AK", "county": "36", "polling.name": "Dot Lake School\n", "address": "1360 Alaska Highway", "city": "Dot Lake", "zip": null, "pp.onres": 1.0 }, "geometry": { "type": "Point", "coordinates": [ -144.033761, 63.642236 ] } },
{ "type": "Feature", "properties": { "bwc_id": 274.0, "state": "AK", "county": "36", "polling.name": "Copper Valley Community Library\n", "address": "Mi 186 Glenn Highway", "city": "Glennallen", "zip": null, "pp.onres": 0.0 }, "geometry": { "type": "Point", "coordinates": [ -145.562406, 62.109396 ] } },
{ "type": "Feature", "properties": { "bwc_id": 299.0, "state": "AK", "county": "37", "polling.name": "Unalaska City Hall\n", "address": "43 Raven Way", "city": "Unalaska", "zip": null, "pp.onres": 1.0 }, "geometry": { "type": "Point", "coordinates": [ -166.537565, 53.872536 ] } },
{ "type": "Feature", "properties": { "bwc_id": 323.0, "state": "AK", "county": "37", "polling.name": "Sand Point City Hall\n", "address": "249 Main Street", "city": "Sand Point", "zip": null, "pp.onres": 1.0 }, "geometry": { "type": "Point", "coordinates": [ -160.500655, 55.335722 ] } },
{ "type": "Feature", "properties": { "bwc_id": 340.0, "state": "AK", "county": "38", "polling.name": "Kanganak Community Hall\n", "address": "101 Council Drive", "city": "Kipnuk", "zip": null, "pp.onres": 1.0 }, "geometry": { "type": "Point", "coordinates": [ -164.04045, 59.933802 ] } },
{ "type": "Feature", "properties": { "bwc_id": 364.0, "state": "AK", "county": "39", "polling.name": "Koyuk Community Hall\n", "address": "3rd Ave and Birch St", "city": "Koyuk", "zip": null, "pp.onres": 1.0 }, "geometry": { "type": "Point", "coordinates": [ -161.16532, 64.93075 ] } },
{ "type": "Feature", "properties": { "bwc_id": 367.0, "state": "AK", "county": "39", "polling.name": "Old St. Joe's\n", "address": "407 Bering St", "city": "Nome", "zip": null, "pp.onres": 1.0 }, "geometry": { "type": "Point", "coordinates": [ -165.407626, 64.501641 ] } },
{ "type": "Feature", "properties": { "bwc_id": 368.0, "state": "AK", "county": "39", "polling.name": "Old St. Joe's\n", "address": "407 Bering St", "city": "Nome", "zip": null, "pp.onres": 1.0 }, "geometry": { "type": "Point", "coordinates": [ -165.407626, 64.501641 ] } },
{ "type": "Feature", "properties": { "bwc_id": 384.0, "state": "AK", "county": "40", "polling.name": "Anaktuvuk Pass Recreation Bldg\n", "address": "3031 Main St", "city": "Anaktuvuk Pass", "zip": null, "pp.onres": 1.0 }, "geometry": { "type": "Point", "coordinates": [ -151.73753, 68.140929 ] } },
{ "type": "Feature", "properties": { "bwc_id": 387.0, "state": "AK", "county": "40", "polling.name": "Inupiat Heritage Center\n", "address": "5421 North Star Street", "city": "Browerville", "zip": null, "pp.onres": 1.0 }, "geometry": { "type": "Point", "coordinates": [ -156.753618, 71.298901 ] } },
{ "type": "Feature", "properties": { "bwc_id": 390.0, "state": "AK", "county": "40", "polling.name": "Kaktovik Community Hall\n", "address": "2051 Barter Avenue", "city": "Kaktovik", "zip": null, "pp.onres": 1.0 }, "geometry": { "type": "Point", "coordinates": [ -143.615095, 70.128275 ] } },
{ "type": "Feature", "properties": { "bwc_id": 394.0, "state": "AK", "county": "40", "polling.name": "Northwest Arctic Borough Bldg\n", "address": "163 Lagoon Street", "city": "Kotzebue", "zip": null, "pp.onres": 1.0 }, "geometry": { "type": "Point", "coordinates": [ -162.602252, 66.896258 ] } },
{ "type": "Feature", "properties": { "bwc_id": 397.0, "state": "AK", "county": "40", "polling.name": "Kisik Community Center\n", "address": "2230 2nd Ave", "city": "Nuiqsut", "zip": null, "pp.onres": 1.0 }, "geometry": { "type": "Point", "coordinates": [ -151.001972, 70.216875 ] } },
{ "type": "Feature", "properties": { "bwc_id": 8.0, "state": "AK", "county": "1", "polling.name": "City Library\n", "address": "106 Denali Alley", "city": "Coffman Cove", "zip": null, "pp.onres": 0.0 }, "geometry": { "type": "Point", "coordinates": [ -132.827782, 56.014046 ] } },
{ "type": "Feature", "properties": { "bwc_id": 11.0, "state": "AK", "county": "2", "polling.name": "Angoon City Office Court Room\n", "address": "700 Aan Deina Aat St", "city": "Angoon", "zip": null, "pp.onres": 1.0 }, "geometry": { "type": "Point", "coordinates": [ -134.582291, 57.500599 ] } },
{ "type": "Feature", "properties": { "bwc_id": 14.0, "state": "AK", "county": "2", "polling.name": "\nRecreation Building\n", "address": "\n(Blue Bldg)", "city": "Hydaburg", "zip": null, "pp.onres": 1.0 }, "geometry": { "type": "Point", "coordinates": [ -132.822386, 55.205147 ] } },
{ "type": "Feature", "properties": { "bwc_id": 15.0, "state": "AK", "county": "2", "polling.name": "Kake City Hall\n", "address": "264 Front St", "city": "Kake", "zip": null, "pp.onres": 1.0 }, "geometry": { "type": "Point", "coordinates": [ -133.943253, 56.97745 ] } },
{ "type": "Feature", "properties": { "bwc_id": 18.0, "state": "AK", "county": "2", "polling.name": "Pelican City Hall\n", "address": "Salmon Way", "city": "Pelican", "zip": null, "pp.onres": 0.0 }, "geometry": { "type": "Point", "coordinates": [ -136.225687, 57.959554 ] } },
{ "type": "Feature", "properties": { "bwc_id": 23.0, "state": "AK", "county": "2", "polling.name": "Tenakee Community Center\n", "address": "Tenakee Avenue", "city": "Tenakee Springs", "zip": null, "pp.onres": 0.0 }, "geometry": { "type": "Point", "coordinates": [ -135.224648, 57.780819 ] } },
{ "type": "Feature", "properties": { "bwc_id": 25.0, "state": "AK", "county": "2", "polling.name": "Yakutat Public Safety Bldg\n", "address": "609 Forest Hwy 10", "city": "Yakutat", "zip": null, "pp.onres": 1.0 }, "geometry": { "type": "Point", "coordinates": [ -139.723225, 59.545512 ] } },
{ "type": "Feature", "properties": { "bwc_id": 29.0, "state": "AK", "county": "3", "polling.name": "\nSt Brendan's Episcopal Church\n", "address": "\n4207 Mendenhall Loop Rd", "city": "Juneau", "zip": null, "pp.onres": 0.0 }, "geometry": { "type": "Point", "coordinates": [ -134.563587, 58.396512 ] } },
{ "type": "Feature", "properties": { "bwc_id": 30.0, "state": "AK", "county": "3", "polling.name": "Mendenhall Valley Public Library\n", "address": "3025 Dimond Park Loop", "city": "Juneau", "zip": null, "pp.onres": 0.0 }, "geometry": { "type": "Point", "coordinates": [ -134.589144, 58.377916 ] } },
{ "type": "Feature", "properties": { "bwc_id": 33.0, "state": "AK", "county": "3", "polling.name": "Klehini Valley Fire Department\n", "address": "Mosquito Lake Road", "city": "Haines", "zip": null, "pp.onres": 0.0 }, "geometry": { "type": "Point", "coordinates": [ -136.01811, 59.427536 ] } },
{ "type": "Feature", "properties": { "bwc_id": 37.0, "state": "AK", "county": "4", "polling.name": "\nJuneau Christian Center\n", "address": "\n8001 Glacier Hwy", "city": "Juneau", "zip": null, "pp.onres": 0.0 }, "geometry": { "type": "Point", "coordinates": [ -134.556068, 58.359695 ] } },
{ "type": "Feature", "properties": { "bwc_id": 39.0, "state": "AK", "county": "4", "polling.name": "\nCentennial Hall Convention Center\n", "address": "\n101 Egan Dr", "city": "Juneau", "zip": null, "pp.onres": 0.0 }, "geometry": { "type": "Point", "coordinates": [ -134.411655, 58.300023 ] } },
{ "type": "Feature", "properties": { "bwc_id": 40.0, "state": "AK", "county": "4", "polling.name": "\nRainforest Recovery Center\n", "address": "\n3250 Hospital Dr", "city": "Juneau", "zip": null, "pp.onres": 0.0 }, "geometry": { "type": "Point", "coordinates": [ -134.463771, 58.328368 ] } },
{ "type": "Feature", "properties": { "bwc_id": 50.0, "state": "AK", "county": "5", "polling.name": "Old Harbor Senior Center\n", "address": "Three Saints Avenue", "city": "Old Harbor", "zip": null, "pp.onres": 1.0 }, "geometry": { "type": "Point", "coordinates": [ -153.306109, 57.202517 ] } },
{ "type": "Feature", "properties": { "bwc_id": 51.0, "state": "AK", "county": "5", "polling.name": "Ouzinkie Tribal Offices\n", "address": "3rd Street", "city": "Ouzinkie", "zip": null, "pp.onres": 1.0 }, "geometry": { "type": "Point", "coordinates": [ -152.504156, 57.923379 ] } },
{ "type": "Feature", "properties": { "bwc_id": 72.0, "state": "AK", "county": "8", "polling.name": "Cooper Landing Community Hall\n", "address": "Bean Creek Rd", "city": "Cooper Landing", "zip": null, "pp.onres": 0.0 }, "geometry": { "type": "Point", "coordinates": [ -149.823623, 60.493417 ] } },
{ "type": "Feature", "properties": { "bwc_id": 75.0, "state": "AK", "county": "8", "polling.name": "Hope Retreat Center\n", "address": "A Ave", "city": "Hope", "zip": null, "pp.onres": 0.0 }, "geometry": { "type": "Point", "coordinates": [ -149.641002, 60.919172 ] } },
{ "type": "Feature", "properties": { "bwc_id": 90.0, "state": "AK", "county": "9", "polling.name": "\n3rd Floor City Council Chambers Whittier Public Safety Building\n", "address": "\n660 Whittier St", "city": "Whittier", "zip": null, "pp.onres": 0.0 }, "geometry": { "type": "Point", "coordinates": [ -148.6853, 60.774598 ] } },
{ "type": "Feature", "properties": { "bwc_id": 105.0, "state": "AK", "county": "12", "polling.name": "\nTrailside Elementary School\n", "address": "\n5151 Abbott Rd", "city": "Anchorage", "zip": null, "pp.onres": 0.0 }, "geometry": { "type": "Point", "coordinates": [ -149.787297, 61.139525 ] } },
{ "type": "Feature", "properties": { "bwc_id": 112.0, "state": "AK", "county": "13", "polling.name": "\nChangePoint\n", "address": "\n6689 Changepoint Dr", "city": "Anchorage", "zip": null, "pp.onres": 0.0 }, "geometry": { "type": "Point", "coordinates": [ -149.905109, 61.161654 ] } },
{ "type": "Feature", "properties": { "bwc_id": 174.0, "state": "AK", "county": "24", "polling.name": "EAGLE RIVER TOWN CENTER\n", "address": "12001 Business Blvd No. 170", "city": "Eagle River", "zip": null, "pp.onres": 0.0 }, "geometry": { "type": "Point", "coordinates": [ -149.571868, 61.329031 ] } },
{ "type": "Feature", "properties": { "bwc_id": 205.0, "state": "AK", "county": "29", "polling.name": "\nChurch on the Rock\n", "address": "\n619 E Scott Road", "city": "Palmer", "zip": null, "pp.onres": 1.0 }, "geometry": { "type": "Point", "coordinates": [ -149.124676, 61.611154 ] } },
{ "type": "Feature", "properties": { "bwc_id": 214.0, "state": "AK", "county": "30", "polling.name": "Anderson City Building\n", "address": "1st Avenue", "city": "Anderson", "zip": null, "pp.onres": 0.0 }, "geometry": { "type": "Point", "coordinates": [ -149.1913, 64.343703 ] } },
{ "type": "Feature", "properties": { "bwc_id": 215.0, "state": "AK", "county": "30", "polling.name": "\nFaith Bible Fellowship Church\n", "address": "\n14225 W Kluane Rd", "city": "Big Lake", "zip": null, "pp.onres": 1.0 }, "geometry": { "type": "Point", "coordinates": [ -149.805228, 61.545923 ] } },
{ "type": "Feature", "properties": { "bwc_id": 216.0, "state": "AK", "county": "30", "polling.name": "Cantwell Community Center\n", "address": "Parks Hwy", "city": "Cantwell", "zip": null, "pp.onres": 1.0 }, "geometry": { "type": "Point", "coordinates": [ -148.900578, 63.392173 ] } },
{ "type": "Feature", "properties": { "bwc_id": 217.0, "state": "AK", "county": "30", "polling.name": "Denali Park Community Center\n", "address": "Mile 230 Parks Hwy", "city": "Denali Park", "zip": null, "pp.onres": 0.0 }, "geometry": { "type": "Point", "coordinates": [ -148.803855, 63.6462 ] } },
{ "type": "Feature", "properties": { "bwc_id": 220.0, "state": "AK", "county": "30", "polling.name": "Houston City Hall\n", "address": "13878 W Armstrong Rd", "city": "Houston", "zip": null, "pp.onres": 1.0 }, "geometry": { "type": "Point", "coordinates": [ -149.802289, 61.631449 ] } },
{ "type": "Feature", "properties": { "bwc_id": 221.0, "state": "AK", "county": "30", "polling.name": "Joe Redington High School\n", "address": "10015 Redington School Rd", "city": "Wasilla", "zip": null, "pp.onres": 1.0 }, "geometry": { "type": "Point", "coordinates": [ -149.702837, 61.501052 ] } },
{ "type": "Feature", "properties": { "bwc_id": 236.0, "state": "AK", "county": "33", "polling.name": "\nEielson Church of Christ\n", "address": "\n3445 Old Richardson Hwy", "city": "North Pole", "zip": null, "pp.onres": 0.0 }, "geometry": { "type": "Point", "coordinates": [ -147.165904, 64.712594 ] } },
{ "type": "Feature", "properties": { "bwc_id": 241.0, "state": "AK", "county": "34", "polling.name": "\nEielson Church of Christ\n", "address": "\n3445 Old Richardson Hwy", "city": "North Pole", "zip": null, "pp.onres": 0.0 }, "geometry": { "type": "Point", "coordinates": [ -147.165904, 64.712594 ] } },
{ "type": "Feature", "properties": { "bwc_id": 250.0, "state": "AK", "county": "35", "polling.name": "Ursa Major Distilling\n", "address": "2922 Parks Highway", "city": "Ester", "zip": null, "pp.onres": 0.0 }, "geometry": { "type": "Point", "coordinates": [ -147.94123, 64.849416 ] } },
{ "type": "Feature", "properties": { "bwc_id": 261.0, "state": "AK", "county": "36", "polling.name": "Beaver Council House\n", "address": "310 River Rd", "city": "Beaver", "zip": null, "pp.onres": 1.0 }, "geometry": { "type": "Point", "coordinates": [ -147.397328, 66.358571 ] } },
{ "type": "Feature", "properties": { "bwc_id": 264.0, "state": "AK", "county": "36", "polling.name": "Slana League Building\n", "address": "Mi 64 Tok Cutoff", "city": "Slana", "zip": null, "pp.onres": 0.0 }, "geometry": { "type": "Point", "coordinates": [ -143.970268, 62.707618 ] } },
{ "type": "Feature", "properties": { "bwc_id": 266.0, "state": "AK", "county": "36", "polling.name": "Native Village Of Kluti Kaah\n", "address": "Old Richardson Highway", "city": "Copper Center", "zip": null, "pp.onres": 1.0 }, "geometry": { "type": "Point", "coordinates": [ -145.339978, 61.988587 ] } },
{ "type": "Feature", "properties": { "bwc_id": 272.0, "state": "AK", "county": "36", "polling.name": "Gakona Volunteer Fire Department\n", "address": "Mi 2.2 Tok Cutoff", "city": "Gakona", "zip": null, "pp.onres": 0.0 }, "geometry": { "type": "Point", "coordinates": [ -145.299332, 62.327182 ] } },
{ "type": "Feature", "properties": { "bwc_id": 286.0, "state": "AK", "county": "36", "polling.name": "Nenana Civic Center\n", "address": "A Street", "city": "Nenana", "zip": null, "pp.onres": 1.0 }, "geometry": { "type": "Point", "coordinates": [ -149.096121, 64.563373 ] } },
{ "type": "Feature", "properties": { "bwc_id": 296.0, "state": "AK", "county": "37", "polling.name": "Akutan City Hall\n", "address": "109 Windy Way", "city": "Akutan", "zip": null, "pp.onres": 1.0 }, "geometry": { "type": "Point", "coordinates": [ -165.778749, 54.134897 ] } },
{ "type": "Feature", "properties": { "bwc_id": 301.0, "state": "AK", "county": "37", "polling.name": "Chignik Community Hall\n", "address": "101 Cemetary Road", "city": "Chignik", "zip": null, "pp.onres": 1.0 }, "geometry": { "type": "Point", "coordinates": [ -158.407012, 56.293804 ] } },
{ "type": "Feature", "properties": { "bwc_id": 302.0, "state": "AK", "county": "37", "polling.name": "Chuathbaluk Community Hall\n", "address": "Community Center Drive", "city": "Chuathbaluk", "zip": null, "pp.onres": 1.0 }, "geometry": { "type": "Point", "coordinates": [ -159.240612, 61.575926 ] } },
{ "type": "Feature", "properties": { "bwc_id": 305.0, "state": "AK", "county": "37", "polling.name": "Crooked Creek Village Office\n", "address": "404 Main Street", "city": "Crooked Creek", "zip": null, "pp.onres": 1.0 }, "geometry": { "type": "Point", "coordinates": [ -158.112606, 61.871424 ] } },
{ "type": "Feature", "properties": { "bwc_id": 308.0, "state": "AK", "county": "37", "polling.name": "Ekwok City Hall\n", "address": "101 Main Street", "city": "Ekwok", "zip": null, "pp.onres": 1.0 }, "geometry": { "type": "Point", "coordinates": [ -157.478883, 59.358848 ] } },
{ "type": "Feature", "properties": { "bwc_id": 314.0, "state": "AK", "county": "37", "polling.name": "Kokhanok Community Hall\n", "address": "2 Bayview Drive", "city": "Kokhanok", "zip": null, "pp.onres": 1.0 }, "geometry": { "type": "Point", "coordinates": [ -154.752072, 59.442631 ] } },
{ "type": "Feature", "properties": { "bwc_id": 317.0, "state": "AK", "county": "37", "polling.name": "Manokotak City Office\n", "address": "Salmon St", "city": "Manokotak", "zip": null, "pp.onres": 1.0 }, "geometry": { "type": "Point", "coordinates": [ -158.954609, 58.966776 ] } },
{ "type": "Feature", "properties": { "bwc_id": 318.0, "state": "AK", "county": "37", "polling.name": "Naknek Community Hall\n", "address": "1 Main Street", "city": "Naknek", "zip": null, "pp.onres": 1.0 }, "geometry": { "type": "Point", "coordinates": [ -157.006977, 58.729982 ] } },
{ "type": "Feature", "properties": { "bwc_id": 319.0, "state": "AK", "county": "37", "polling.name": "New Stuyahok City Hall\n", "address": "3rd St", "city": "New Stuyahok", "zip": null, "pp.onres": 1.0 }, "geometry": { "type": "Point", "coordinates": [ -157.3173, 59.451481 ] } },
{ "type": "Feature", "properties": { "bwc_id": 321.0, "state": "AK", "county": "37", "polling.name": "Pedro Bay Village Council Bldg\n", "address": "2516 Mountain Circle", "city": "Pedro Bay", "zip": null, "pp.onres": 1.0 }, "geometry": { "type": "Point", "coordinates": [ -154.147956, 59.772632 ] } },
{ "type": "Feature", "properties": { "bwc_id": 322.0, "state": "AK", "county": "37", "polling.name": "Port Heiden Community Building\n", "address": "2200 James St", "city": "Port Heiden", "zip": null, "pp.onres": 1.0 }, "geometry": { "type": "Point", "coordinates": [ -158.626911, 56.949647 ] } },
{ "type": "Feature", "properties": { "bwc_id": 324.0, "state": "AK", "county": "37", "polling.name": "Sleetmute Community Building\n", "address": "109 Main St", "city": "Sleetmute", "zip": null, "pp.onres": 1.0 }, "geometry": { "type": "Point", "coordinates": [ -157.168254, 61.726142 ] } },
{ "type": "Feature", "properties": { "bwc_id": 328.0, "state": "AK", "county": "37", "polling.name": "Togiak City Office\n", "address": "2nd and G St", "city": "Togiak", "zip": null, "pp.onres": 1.0 }, "geometry": { "type": "Point", "coordinates": [ -160.378647, 59.060646 ] } },
{ "type": "Feature", "properties": { "bwc_id": 331.0, "state": "AK", "county": "38", "polling.name": "Akiachak Recreation Building\n", "address": "Main Street", "city": "Akiachak", "zip": null, "pp.onres": 1.0 }, "geometry": { "type": "Point", "coordinates": [ -161.761821, 60.79584 ] } },
{ "type": "Feature", "properties": { "bwc_id": 332.0, "state": "AK", "county": "38", "polling.name": "Akiak Community Hall\n", "address": "81 Airport Rd", "city": "Akiak", "zip": null, "pp.onres": 1.0 }, "geometry": { "type": "Point", "coordinates": [ -161.221236, 60.907304 ] } },
{ "type": "Feature", "properties": { "bwc_id": 333.0, "state": "AK", "county": "38", "polling.name": "Atmautluak Community Center\n", "address": "101 Boardwalk Lane", "city": "Atmautluak", "zip": null, "pp.onres": 1.0 }, "geometry": { "type": "Point", "coordinates": [ -162.280672, 60.859533 ] } },
{ "type": "Feature", "properties": { "bwc_id": 334.0, "state": "AK", "county": "38", "polling.name": "\nYupiit Piciyarait Cultural Center\n", "address": "\n420 Chief Eddie Hoffman Highway", "city": "Bethel", "zip": null, "pp.onres": 1.0 }, "geometry": { "type": "Point", "coordinates": [ -161.772143, 60.790974 ] } },
{ "type": "Feature", "properties": { "bwc_id": 336.0, "state": "AK", "county": "38", "polling.name": "Chefornak Complex Building\n", "address": "101 Complex Drive", "city": "Chefornak", "zip": null, "pp.onres": 1.0 }, "geometry": { "type": "Point", "coordinates": [ -164.286992, 60.159913 ] } },
{ "type": "Feature", "properties": { "bwc_id": 338.0, "state": "AK", "county": "38", "polling.name": "Eek City Office\n", "address": "Eek City Office\n", "city": "Eek", "zip": null, "pp.onres": 1.0 }, "geometry": { "type": "Point", "coordinates": [ -162.023399, 60.215437 ] } },
{ "type": "Feature", "properties": { "bwc_id": 339.0, "state": "AK", "county": "38", "polling.name": "Kasigluk Community Center\n", "address": "1 Tangerpagcayaq Road", "city": "Kasigluk", "zip": null, "pp.onres": 1.0 }, "geometry": { "type": "Point", "coordinates": [ -162.516157, 60.873013 ] } },
{ "type": "Feature", "properties": { "bwc_id": 342.0, "state": "AK", "county": "38", "polling.name": "Kwethluk Former High School\n", "address": "254 Jay Hammond Way", "city": "Kwethluk", "zip": null, "pp.onres": 1.0 }, "geometry": { "type": "Point", "coordinates": [ -161.421436, 60.807949 ] } },
{ "type": "Feature", "properties": { "bwc_id": 344.0, "state": "AK", "county": "38", "polling.name": "Mekoryuk Old City Office\n", "address": "29 Airport Road", "city": "Mekoryuk", "zip": null, "pp.onres": 1.0 }, "geometry": { "type": "Point", "coordinates": [ -166.186801, 60.387643 ] } },
{ "type": "Feature", "properties": { "bwc_id": 348.0, "state": "AK", "county": "38", "polling.name": "Nightmute City Office\n", "address": "Changtaq Street", "city": "Nightmute", "zip": null, "pp.onres": 1.0 }, "geometry": { "type": "Point", "coordinates": [ -164.718083, 60.477889 ] } },
{ "type": "Feature", "properties": { "bwc_id": 349.0, "state": "AK", "county": "38", "polling.name": "Ira Gaming Building\n", "address": "103 Johnson Loop", "city": "Nunapitchuk", "zip": null, "pp.onres": 1.0 }, "geometry": { "type": "Point", "coordinates": [ -162.456501, 60.897379 ] } },
{ "type": "Feature", "properties": { "bwc_id": 350.0, "state": "AK", "county": "38", "polling.name": "Qanirtuuq Building\n", "address": "100 Qanirtuuq Dr", "city": "Quinhagak", "zip": null, "pp.onres": 1.0 }, "geometry": { "type": "Point", "coordinates": [ -161.903488, 59.749975 ] } },
{ "type": "Feature", "properties": { "bwc_id": 352.0, "state": "AK", "county": "38", "polling.name": "Tuluksak Recreation Building\n", "address": "16 Tuluksak Heights", "city": "Tuluksak", "zip": null, "pp.onres": 1.0 }, "geometry": { "type": "Point", "coordinates": [ -160.959137, 61.099839 ] } },
{ "type": "Feature", "properties": { "bwc_id": 353.0, "state": "AK", "county": "38", "polling.name": "Tuntutuliak Community Hall\n", "address": "101 Patluska Street", "city": "Tuntutuliak", "zip": null, "pp.onres": 1.0 }, "geometry": { "type": "Point", "coordinates": [ -162.676321, 60.343447 ] } },
{ "type": "Feature", "properties": { "bwc_id": 354.0, "state": "AK", "county": "38", "polling.name": "Tununak Ira Building\n", "address": "77 Main Street", "city": "Tununak", "zip": null, "pp.onres": 1.0 }, "geometry": { "type": "Point", "coordinates": [ -165.245584, 60.573564 ] } },
{ "type": "Feature", "properties": { "bwc_id": 356.0, "state": "AK", "county": "39", "polling.name": "Multi-Purpose Building\n", "address": "Clarence Road", "city": "Brevig Mission", "zip": null, "pp.onres": 1.0 }, "geometry": { "type": "Point", "coordinates": [ -166.487259, 65.335081 ] } },
{ "type": "Feature", "properties": { "bwc_id": 360.0, "state": "AK", "county": "39", "polling.name": "Qerngughvik Community Hall\n", "address": "189 Gravel Street", "city": "Gambell", "zip": null, "pp.onres": 1.0 }, "geometry": { "type": "Point", "coordinates": [ -171.740961, 63.779926 ] } },
{ "type": "Feature", "properties": { "bwc_id": 369.0, "state": "AK", "county": "39", "polling.name": "Nunam Iqua Community Hall\n", "address": "27 Main St", "city": "Nunam Iqua", "zip": null, "pp.onres": 1.0 }, "geometry": { "type": "Point", "coordinates": [ -164.851284, 62.530961 ] } },
{ "type": "Feature", "properties": { "bwc_id": 371.0, "state": "AK", "county": "39", "polling.name": "Russian Mission City Office\n", "address": "5111 Main Street", "city": "Russian Mission", "zip": null, "pp.onres": 1.0 }, "geometry": { "type": "Point", "coordinates": [ -161.326349, 61.788469 ] } },
{ "type": "Feature", "properties": { "bwc_id": 373.0, "state": "AK", "county": "39", "polling.name": "Scammon Bay Traditional Council\n", "address": "104 Ashinuk Street", "city": "Scammon Bay", "zip": null, "pp.onres": 1.0 }, "geometry": { "type": "Point", "coordinates": [ -165.579702, 61.842491 ] } },
{ "type": "Feature", "properties": { "bwc_id": 374.0, "state": "AK", "county": "39", "polling.name": "Shaktoolik City Hall\n", "address": "10 Main Street", "city": "Shaktoolik", "zip": null, "pp.onres": 1.0 }, "geometry": { "type": "Point", "coordinates": [ -161.185378, 64.34908 ] } },
{ "type": "Feature", "properties": { "bwc_id": 375.0, "state": "AK", "county": "39", "polling.name": "SHISHMAREF COMMUNITY HALL\n", "address": "110 Lagoon View", "city": "Shishmaref", "zip": null, "pp.onres": 1.0 }, "geometry": { "type": "Point", "coordinates": [ -166.070632, 66.255509 ] } },
{ "type": "Feature", "properties": { "bwc_id": 378.0, "state": "AK", "county": "39", "polling.name": "Stebbins Community Hall\n", "address": "100 Main Street", "city": "Stebbins", "zip": null, "pp.onres": 1.0 }, "geometry": { "type": "Point", "coordinates": [ -162.291407, 63.523817 ] } },
{ "type": "Feature", "properties": { "bwc_id": 379.0, "state": "AK", "county": "39", "polling.name": "Teller Community/Bingo Hall\n", "address": "Grantley Ave", "city": "Teller", "zip": null, "pp.onres": 1.0 }, "geometry": { "type": "Point", "coordinates": [ -166.363649, 65.263315 ] } },
{ "type": "Feature", "properties": { "bwc_id": 382.0, "state": "AK", "county": "39", "polling.name": "New Community Building\n", "address": "101 White Mountain Hill Road", "city": "White Mountain", "zip": null, "pp.onres": 1.0 }, "geometry": { "type": "Point", "coordinates": [ -163.396607, 64.678687 ] } },
{ "type": "Feature", "properties": { "bwc_id": 388.0, "state": "AK", "county": "40", "polling.name": "Buckland Community Building\n", "address": "49 3rd Ave", "city": "Buckland", "zip": null, "pp.onres": 1.0 }, "geometry": { "type": "Point", "coordinates": [ -161.123955, 65.974737 ] } },
{ "type": "Feature", "properties": { "bwc_id": 389.0, "state": "AK", "county": "40", "polling.name": "Deering Community Hall\n", "address": "59 Main Street", "city": "Deering", "zip": null, "pp.onres": 1.0 }, "geometry": { "type": "Point", "coordinates": [ -162.735625, 66.079043 ] } },
{ "type": "Feature", "properties": { "bwc_id": 392.0, "state": "AK", "county": "40", "polling.name": "\nKivalina Armory Building\n", "address": "\nKivalina", "city": "Kivalina", "zip": null, "pp.onres": 1.0 }, "geometry": { "type": "Point", "coordinates": [ -164.536567, 67.727447 ] } },
{ "type": "Feature", "properties": { "bwc_id": 393.0, "state": "AK", "county": "40", "polling.name": "Kobuk Community Building\n", "address": "519 Church St", "city": "Kobuk", "zip": null, "pp.onres": 1.0 }, "geometry": { "type": "Point", "coordinates": [ -156.890377, 66.912526 ] } },
{ "type": "Feature", "properties": { "bwc_id": 16.0, "state": "AK", "county": "2", "polling.name": "David S Peele Community Hall\n", "address": "Peele & Jones Street", "city": "Kasaan", "zip": null, "pp.onres": 1.0 }, "geometry": { "type": "Point", "coordinates": [ -132.40234, 55.54138 ] } },
{ "type": "Feature", "properties": { "bwc_id": 47.0, "state": "AK", "county": "5", "polling.name": "Harbor Master Office\n", "address": "403 Marine Way West", "city": "Kodiak", "zip": null, "pp.onres": 0.0 }, "geometry": { "type": "Point", "coordinates": [ -152.406725, 57.787182 ] } },
{ "type": "Feature", "properties": { "bwc_id": 53.0, "state": "AK", "county": "5", "polling.name": "The Cordova Center\n", "address": "601 First Street", "city": "Cordova", "zip": null, "pp.onres": 0.0 }, "geometry": { "type": "Point", "coordinates": [ -145.759422, 60.541672 ] } },
{ "type": "Feature", "properties": { "bwc_id": 55.0, "state": "AK", "county": "5", "polling.name": "Tatitlek Community Center\n", "address": "411 Old Village Rd", "city": "Tatitlek", "zip": null, "pp.onres": 1.0 }, "geometry": { "type": "Point", "coordinates": [ -146.67806, 60.86434 ] } },
{ "type": "Feature", "properties": { "bwc_id": 56.0, "state": "AK", "county": "6", "polling.name": "Anchor Point Senior Center\n", "address": "Mi .25 Milo Fritz Avenue", "city": "Anchor Point", "zip": null, "pp.onres": 1.0 }, "geometry": { "type": "Point", "coordinates": [ -151.854382, 59.779526 ] } },
{ "type": "Feature", "properties": { "bwc_id": 73.0, "state": "AK", "county": "8", "polling.name": "Funny River Community Center\n", "address": "35850 Pioneer Access", "city": "Soldotna", "zip": null, "pp.onres": 1.0 }, "geometry": { "type": "Point", "coordinates": [ -150.837972, 60.498742 ] } },
{ "type": "Feature", "properties": { "bwc_id": 77.0, "state": "AK", "county": "8", "polling.name": "Moose Pass Community Hall\n", "address": "Mi 29.5 Seward Hwy", "city": "Moose Pass", "zip": null, "pp.onres": 0.0 }, "geometry": { "type": "Point", "coordinates": [ -149.37174, 60.502066 ] } },
{ "type": "Feature", "properties": { "bwc_id": 82.0, "state": "AK", "county": "9", "polling.name": "Girdwood Community Center\n", "address": "250 Egloff St", "city": "Girdwood", "zip": null, "pp.onres": 0.0 }, "geometry": { "type": "Point", "coordinates": [ -149.13683, 60.959831 ] } },
{ "type": "Feature", "properties": { "bwc_id": 150.0, "state": "AK", "county": "19", "polling.name": "Tyson Elementary School\n", "address": "2801 Richmond Ave", "city": "Anchorage", "zip": null, "pp.onres": 0.0 }, "geometry": { "type": "Point", "coordinates": [ -149.823529, 61.225128 ] } },
{ "type": "Feature", "properties": { "bwc_id": 187.0, "state": "AK", "county": "26", "polling.name": "Central Matsu Fire Station 51\n", "address": "1911 S Terrace Ct", "city": "Wasilla", "zip": null, "pp.onres": 1.0 }, "geometry": { "type": "Point", "coordinates": [ -150.00598, 61.349 ] } },
{ "type": "Feature", "properties": { "bwc_id": 197.0, "state": "AK", "county": "27", "polling.name": "Menard Sports Center\n", "address": "1001 Clapp St", "city": "Wasilla", "zip": null, "pp.onres": 1.0 }, "geometry": { "type": "Point", "coordinates": [ -149.541078, 61.559511 ] } },
{ "type": "Feature", "properties": { "bwc_id": 211.0, "state": "AK", "county": "29", "polling.name": "Ike Woody Woodman Recreation Center\n", "address": "414 W Hanagita St", "city": "Valdez", "zip": null, "pp.onres": 0.0 }, "geometry": { "type": "Point", "coordinates": [ -146.360089, 61.136922 ] } },
{ "type": "Feature", "properties": { "bwc_id": 212.0, "state": "AK", "county": "29", "polling.name": "Valdez City Council Chambers\n", "address": "212 Chenega Dr", "city": "Valdez", "zip": null, "pp.onres": 0.0 }, "geometry": { "type": "Point", "coordinates": [ -146.35411, 61.129912 ] } },
{ "type": "Feature", "properties": { "bwc_id": 213.0, "state": "AK", "county": "29", "polling.name": "Robe River Fire Hall\n", "address": "124 River Rd", "city": "Valdez", "zip": null, "pp.onres": 0.0 }, "geometry": { "type": "Point", "coordinates": [ -146.199407, 61.092372 ] } },
{ "type": "Feature", "properties": { "bwc_id": 224.0, "state": "AK", "county": "30", "polling.name": "Talkeetna Public Library\n", "address": "24645 Talkeetna Spur Rd", "city": "Talkeetna", "zip": null, "pp.onres": 1.0 }, "geometry": { "type": "Point", "coordinates": [ -150.078828, 62.296545 ] } },
{ "type": "Feature", "properties": { "bwc_id": 225.0, "state": "AK", "county": "30", "polling.name": "Willow Community Center\n", "address": "23557 W. Willow Community Center Cir.", "city": "Willow", "zip": null, "pp.onres": 1.0 }, "geometry": { "type": "Point", "coordinates": [ -150.047944, 61.745458 ] } },
{ "type": "Feature", "properties": { "bwc_id": 235.0, "state": "AK", "county": "33", "polling.name": "Santa Senior Center\n", "address": "101 5th Avenue", "city": "North Pole", "zip": null, "pp.onres": 0.0 }, "geometry": { "type": "Point", "coordinates": [ -147.3505, 64.750689 ] } },
{ "type": "Feature", "properties": { "bwc_id": 240.0, "state": "AK", "county": "34", "polling.name": "Eielson Air Force Base Exchange\n", "address": "451 Broadway Avenue", "city": "Eielson Afb", "zip": null, "pp.onres": 0.0 }, "geometry": { "type": "Point", "coordinates": [ -147.070799, 64.676242 ] } },
{ "type": "Feature", "properties": { "bwc_id": 283.0, "state": "AK", "county": "36", "polling.name": "Iasd Museum Transportation Exhibit Hall\n", "address": "90 Chinana Avenue", "city": "Mcgrath", "zip": null, "pp.onres": 1.0 }, "geometry": { "type": "Point", "coordinates": [ -155.55946, 62.9439 ] } },
{ "type": "Feature", "properties": { "bwc_id": 290.0, "state": "AK", "county": "36", "polling.name": "Ruby Community Hall\n", "address": "6 Goodtime Road", "city": "Ruby", "zip": null, "pp.onres": 1.0 }, "geometry": { "type": "Point", "coordinates": [ -155.490212, 64.739995 ] } },
{ "type": "Feature", "properties": { "bwc_id": 297.0, "state": "AK", "county": "37", "polling.name": "Aleknagik City Hall\n", "address": "33 Main Street", "city": "Aleknagik", "zip": null, "pp.onres": 1.0 }, "geometry": { "type": "Point", "coordinates": [ -158.620767, 59.279461 ] } },
{ "type": "Feature", "properties": { "bwc_id": 298.0, "state": "AK", "county": "37", "polling.name": "Bob Reeves High School\n", "address": "100 Mechanic Rd", "city": "Adak", "zip": null, "pp.onres": 0.0 }, "geometry": { "type": "Point", "coordinates": [ -176.64005, 51.86992 ] } },
{ "type": "Feature", "properties": { "bwc_id": 300.0, "state": "AK", "county": "37", "polling.name": "Aniak Community Hall\n", "address": "1 Community Hall Road", "city": "Aniak", "zip": null, "pp.onres": 1.0 }, "geometry": { "type": "Point", "coordinates": [ -159.56472, 61.58119 ] } },
{ "type": "Feature", "properties": { "bwc_id": 304.0, "state": "AK", "county": "37", "polling.name": "Cold Bay Municipal Building\n", "address": "10 Baranov Street", "city": "Cold Bay", "zip": null, "pp.onres": 0.0 }, "geometry": { "type": "Point", "coordinates": [ -162.7071, 55.20599 ] } },
{ "type": "Feature", "properties": { "bwc_id": 306.0, "state": "AK", "county": "37", "polling.name": "Dillingham City Hall\n", "address": "141 Main St", "city": "Dillingham", "zip": null, "pp.onres": 1.0 }, "geometry": { "type": "Point", "coordinates": [ -158.464015, 59.039103 ] } },
{ "type": "Feature", "properties": { "bwc_id": 307.0, "state": "AK", "county": "37", "polling.name": "Egegik City Hall\n", "address": "189 Airport Rd", "city": "Egegik", "zip": null, "pp.onres": 1.0 }, "geometry": { "type": "Point", "coordinates": [ -157.3735, 58.19498 ] } },
{ "type": "Feature", "properties": { "bwc_id": 311.0, "state": "AK", "county": "37", "polling.name": "King Salmon Village Council Building\n", "address": "Mi .5 King Salmon Heights Road", "city": "King Salmon", "zip": null, "pp.onres": 1.0 }, "geometry": { "type": "Point", "coordinates": [ -156.69355, 58.7072 ] } },
{ "type": "Feature", "properties": { "bwc_id": 312.0, "state": "AK", "county": "37", "polling.name": "Koliganek Village Council Bldg\n", "address": "5057 Main Rd", "city": "Koliganek", "zip": null, "pp.onres": 1.0 }, "geometry": { "type": "Point", "coordinates": [ -158.455507, 59.040139 ] } },
{ "type": "Feature", "properties": { "bwc_id": 316.0, "state": "AK", "county": "37", "polling.name": "Lower Kalskag Community Hall\n", "address": "69 Main Street", "city": "Lower Kalskag", "zip": null, "pp.onres": 1.0 }, "geometry": { "type": "Point", "coordinates": [ -160.36484, 61.51181 ] } },
{ "type": "Feature", "properties": { "bwc_id": 320.0, "state": "AK", "county": "37", "polling.name": "Nondalton Community Hall\n", "address": "49 Main Street", "city": "Nondalton", "zip": null, "pp.onres": 0.0 }, "geometry": { "type": "Point", "coordinates": [ -154.85066, 59.96898 ] } },
{ "type": "Feature", "properties": { "bwc_id": 325.0, "state": "AK", "county": "37", "polling.name": "South Naknek Community Hall\n", "address": "113 Airport St", "city": "South Naknek", "zip": null, "pp.onres": 1.0 }, "geometry": { "type": "Point", "coordinates": [ -157.00324, 58.71567 ] } },
{ "type": "Feature", "properties": { "bwc_id": 327.0, "state": "AK", "county": "37", "polling.name": "St Paul City Auditorium\n", "address": "100 Gorbach Rd", "city": "St Paul Island", "zip": null, "pp.onres": 1.0 }, "geometry": { "type": "Point", "coordinates": [ -170.28297, 57.1208 ] } },
{ "type": "Feature", "properties": { "bwc_id": 329.0, "state": "AK", "county": "37", "polling.name": "Tyonek Community Hall\n", "address": "100 A Street", "city": "Tyonek", "zip": null, "pp.onres": 1.0 }, "geometry": { "type": "Point", "coordinates": [ -151.13712, 61.06828 ] } },
{ "type": "Feature", "properties": { "bwc_id": 335.0, "state": "AK", "county": "38", "polling.name": "Yupiit Piciryarait Cultural Center\n", "address": "420 Chief Eddie Hoffman Hwy", "city": "Bethel", "zip": null, "pp.onres": 1.0 }, "geometry": { "type": "Point", "coordinates": [ -161.772143, 60.790974 ] } },
{ "type": "Feature", "properties": { "bwc_id": 337.0, "state": "AK", "county": "38", "polling.name": "Jvp Building\n", "address": "140 Aurora Street", "city": "Chevak", "zip": null, "pp.onres": 1.0 }, "geometry": { "type": "Point", "coordinates": [ -165.58902, 61.52781 ] } },
{ "type": "Feature", "properties": { "bwc_id": 345.0, "state": "AK", "county": "38", "polling.name": "Napakiak Bingo Hall\n", "address": "17 Airport Road", "city": "Napakiak", "zip": null, "pp.onres": 1.0 }, "geometry": { "type": "Point", "coordinates": [ -161.97717, 60.69323 ] } },
{ "type": "Feature", "properties": { "bwc_id": 355.0, "state": "AK", "county": "39", "polling.name": "Alakanuk Community Hall\n", "address": "500 Anderson Street", "city": "Alakanuk", "zip": null, "pp.onres": 1.0 }, "geometry": { "type": "Point", "coordinates": [ -164.638148, 62.685695 ] } },
{ "type": "Feature", "properties": { "bwc_id": 358.0, "state": "AK", "county": "39", "polling.name": "Elim City Building\n", "address": "101 Hillside Street", "city": "Elim", "zip": null, "pp.onres": 1.0 }, "geometry": { "type": "Point", "coordinates": [ -162.2604, 64.6162 ] } },
{ "type": "Feature", "properties": { "bwc_id": 359.0, "state": "AK", "county": "39", "polling.name": "Emmonak Community Center\n", "address": "09 Emmonak Rd", "city": "Emmonak", "zip": null, "pp.onres": 1.0 }, "geometry": { "type": "Point", "coordinates": [ -164.52771, 62.77628 ] } },
{ "type": "Feature", "properties": { "bwc_id": 361.0, "state": "AK", "county": "39", "polling.name": "GOLOVIN COMMUNITY HALL\n", "address": "1 Amuktoolik St", "city": "Golovin", "zip": null, "pp.onres": 1.0 }, "geometry": { "type": "Point", "coordinates": [ -163.04385, 64.5409 ] } },
{ "type": "Feature", "properties": { "bwc_id": 362.0, "state": "AK", "county": "39", "polling.name": "Brown Council Building\n", "address": "2 Tomaganuk Rd", "city": "Hooper Bay", "zip": null, "pp.onres": 1.0 }, "geometry": { "type": "Point", "coordinates": [ -166.10636, 61.52698 ] } },
{ "type": "Feature", "properties": { "bwc_id": 363.0, "state": "AK", "county": "39", "polling.name": "Kotlik City Office\n", "address": "5 Curry St", "city": "Kotlik", "zip": null, "pp.onres": 1.0 }, "geometry": { "type": "Point", "coordinates": [ -163.55388, 63.03265 ] } },
{ "type": "Feature", "properties": { "bwc_id": 365.0, "state": "AK", "county": "39", "polling.name": "Marshall City Office\n", "address": "3230 Yukon Ave", "city": "Marshall", "zip": null, "pp.onres": 1.0 }, "geometry": { "type": "Point", "coordinates": [ -162.0332, 61.86627 ] } },
{ "type": "Feature", "properties": { "bwc_id": 366.0, "state": "AK", "county": "39", "polling.name": "Mountain Village Community Hall\n", "address": "1St St Marys Road", "city": "Mountain Village", "zip": null, "pp.onres": 1.0 }, "geometry": { "type": "Point", "coordinates": [ -163.66616, 62.09927 ] } },
{ "type": "Feature", "properties": { "bwc_id": 370.0, "state": "AK", "county": "39", "polling.name": "Tutalgaq Community Center\n", "address": "9 Airport Road", "city": "Pilot Station", "zip": null, "pp.onres": 1.0 }, "geometry": { "type": "Point", "coordinates": [ -162.88128, 61.93673 ] } },
{ "type": "Feature", "properties": { "bwc_id": 372.0, "state": "AK", "county": "39", "polling.name": "Savoonga Municipal Building\n", "address": "11 Airport Road", "city": "Savoonga", "zip": null, "pp.onres": 1.0 }, "geometry": { "type": "Point", "coordinates": [ -170.48608, 63.69104 ] } },